zpid,id,imgSrc,hasImage,detailUrl,statusType,statusText,countryCurrency,price,unformattedPrice,address,addressStreet,addressCity,addressState,addressZipcode,isUndisclosedAddress,beds,baths,area,latitude,longitude,isZillowOwned,variableData,badgeInfo,pgapt,sgapt,zestimate
26789060,26789060,https://photos.zillowstatic.com/fp/2fcfaa1ccf8f399410e1ad029327d949-p_e.jpg,TRUE,https://www.zillow.com/homedetails/3908-Rochelle-Dr-Dallas-TX-75220/26789060_zpid/,FOR_SALE,New construction,$,499000,499000,"3908 Rochelle Dr, Dallas, TX 75220",3908 Rochelle Dr,Dallas,TX,75220,FALSE,5,6,4570,32.874886,-96.85059,FALSE,"{'type': 'DAYS_ON', 'text': '112 days on Zillow'}",,ForSale,New Construction,1655500
2094371720,2094371720,https://photos.zillowstatic.com/fp/5c0bb5b4be2cf31880baa7bb2ba7984d-p_e.jpg,TRUE,https://www.zillow.com/homedetails/8110-Skillman-St-APT-2064-Dallas-TX-75231/2094371720_zpid/,FOR_SALE,Condo for sale,$,114500,114500,"8110 Skillman St APT 2064, Dallas, TX 75231",8110 Skillman St APT 2064,Dallas,TX,75231,FALSE,2,2,807,32.89144,-96.72824,FALSE,"{'type': 'PRICE_REDUCTION', 'text': '$500 (Nov 7)'}",,ForSale,For Sale (Broker),233400
26847983,26847983,https://photos.zillowstatic.com/fp/d677fa4b44b6730939b49e56df84c0ab-p_e.jpg,TRUE,https://www.zillow.com/homedetails/2141-Province-Ln-Dallas-TX-75228/26847983_zpid/,FOR_SALE,House for sale,$,320000,320000,"2141 Province Ln, Dallas, TX 75228",2141 Province Ln,Dallas,TX,75228,FALSE,3,3,2136,32.823036,-96.67844,FALSE,"{'type': 'PRICE_REDUCTION', 'text': '$20,000 (Oct 30)'}",,ForSale,For Sale (Broker),428500
26751731,26751731,https://photos.zillowstatic.com/fp/70fe1364d1f585999964d699f3495933-p_e.jpg,TRUE,https://www.zillow.com/homedetails/7404-W-Northwest-Hwy-9-Dallas-TX-75225/26751731_zpid/,FOR_SALE,Condo for sale,$,310000,310000,"7404 W Northwest Hwy #9, Dallas, TX 75225",7404 W Northwest Hwy #9,Dallas,TX,75225,FALSE,2,3,1522,32.865433,-96.780266,FALSE,"{'type': 'TIME_ON_INFO', 'text': '1 hour ago', 'data': {'isFresh': False}}",,ForSale,For Sale (Broker),410800
26608845,26608845,https://photos.zillowstatic.com/fp/ab3162ab81c61c3cf85ca7b2c300ed05-p_e.jpg,TRUE,https://www.zillow.com/homedetails/17911-Lost-View-Rd-Dallas-TX-75252/26608845_zpid/,FOR_SALE,House for sale,$,695000,695000,"17911 Lost View Rd, Dallas, TX 75252",17911 Lost View Rd,Dallas,TX,75252,FALSE,4,4,3856,32.99724,-96.81014,FALSE,"{'type': 'OPEN_HOUSE', 'text': 'Open: Sun. 2-4pm'}",,ForSale,For Sale (Broker),785500
26870517,26870517,https://photos.zillowstatic.com/fp/1c237117f33652111a6dd941dc828efe-p_e.jpg,TRUE,https://www.zillow.com/homedetails/14028-Highmark-Sq-Dallas-TX-75254/26870517_zpid/,FOR_SALE,House for sale,$,579000,579000,"14028 Highmark Sq, Dallas, TX 75254",14028 Highmark Sq,Dallas,TX,75254,FALSE,4,3,3066,32.94015,-96.80264,FALSE,"{'type': 'TIME_ON_INFO', 'text': '22 hours ago', 'data': {'isFresh': False}}",,ForSale,For Sale (Broker),666200
26898193,26898193,https://photos.zillowstatic.com/fp/02f7a7d192ccbcc3c7442254f989d08c-p_e.jpg,TRUE,https://www.zillow.com/homedetails/3323-N-Haskell-Ave-Dallas-TX-75204/26898193_zpid/,FOR_SALE,Townhouse for sale,$,640000,640000,"3323 N Haskell Ave, Dallas, TX 75204",3323 N Haskell Ave,Dallas,TX,75204,FALSE,3,3,1734,32.811363,-96.79798,FALSE,"{'type': 'PRICE_REDUCTION', 'text': '$50,000 (Nov 4)'}",,ForSale,For Sale (Broker),690000
26722668,26722668,https://photos.zillowstatic.com/fp/a6c56b29b8a341f4d1bc5f5e82e7e612-p_e.jpg,TRUE,https://www.zillow.com/homedetails/2638-Ramsey-Ave-Dallas-TX-75216/26722668_zpid/,FOR_SALE,House for sale,$,180000,180000,"2638 Ramsey Ave, Dallas, TX 75216",2638 Ramsey Ave,Dallas,TX,75216,FALSE,3,2,1319,32.715446,-96.82023,FALSE,"{'type': 'TIME_ON_INFO', 'text': '12 hours ago', 'data': {'isFresh': False}}",,ForSale,For Sale (Broker),225300
26707317,26707317,https://photos.zillowstatic.com/fp/37473cca5a422187dd4f681b671c0a11-p_e.jpg,TRUE,https://www.zillow.com/homedetails/6742-E-Mockingbird-Ln-Dallas-TX-75214/26707317_zpid/,FOR_SALE,House for sale,$,775000,775000,"6742 E Mockingbird Ln, Dallas, TX 75214",6742 E Mockingbird Ln,Dallas,TX,75214,FALSE,3,2,2650,32.839912,-96.74396,FALSE,"{'type': 'PRICE_REDUCTION', 'text': '$50,000 (Nov 1)'}",,ForSale,For Sale (Broker),817800
96520679,96520679,https://photos.zillowstatic.com/fp/dab9a86d8119811b59cec0e5811a8172-p_e.jpg,TRUE,https://www.zillow.com/homedetails/1627-Greenlawn-Dr-Dallas-TX-75253/96520679_zpid/,FOR_SALE,House for sale,$,279900,279900,"1627 Greenlawn Dr, Dallas, TX 75253",1627 Greenlawn Dr,Dallas,TX,75253,FALSE,3,2,1919,32.68358,-96.63557,FALSE,"{'type': 'OPEN_HOUSE', 'text': 'Open: Sat. 1-3pm'}",,ForSale,For Sale (Broker),322500
96533324,96533324,https://photos.zillowstatic.com/fp/e93116cd42f0f3e33e610ae72fc18ada-p_e.jpg,TRUE,https://www.zillow.com/homedetails/1911-Ebbtide-Ln-Dallas-TX-75224/96533324_zpid/,FOR_SALE,House for sale,$,499000,499000,"1911 Ebbtide Ln, Dallas, TX 75224",1911 Ebbtide Ln,Dallas,TX,75224,FALSE,4,3,3456,32.69955,-96.85097,FALSE,"{'type': 'PRICE_REDUCTION', 'text': '$50,000 (Nov 10)'}",,ForSale,For Sale (Broker),540900
96502063,96502063,https://photos.zillowstatic.com/fp/207dd5b9ff96d77920855f1fac4132e4-p_e.jpg,TRUE,https://www.zillow.com/homedetails/702-Graham-Ave-Dallas-TX-75223/96502063_zpid/,FOR_SALE,New construction,$,750000,750000,"702 Graham Ave, Dallas, TX 75223",702 Graham Ave,Dallas,TX,75223,FALSE,4,4,3383,32.79675,-96.75197,FALSE,"{'type': 'DAYS_ON', 'text': '3 days on Zillow'}",,ForSale,New Construction,789100
26849108,26849108,https://photos.zillowstatic.com/fp/d9d027b44ffa6cee1a10f53020747258-p_e.jpg,TRUE,https://www.zillow.com/homedetails/6030-Shetland-Dr-Dallas-TX-75230/26849108_zpid/,FOR_SALE,House for sale,$,859000,859000,"6030 Shetland Dr, Dallas, TX 75230",6030 Shetland Dr,Dallas,TX,75230,FALSE,4,4,3860,32.91915,-96.80222,FALSE,"{'type': 'PRICE_REDUCTION', 'text': '$40,000 (Nov 16)'}",,ForSale,For Sale (Broker),897900
26686224,26686224,https://photos.zillowstatic.com/fp/23852a84902cd08442a143537bc79899-p_e.jpg,TRUE,https://www.zillow.com/homedetails/1728-Stoneman-St-Dallas-TX-75215/26686224_zpid/,FOR_SALE,House for sale,$,549000,549000,"1728 Stoneman St, Dallas, TX 75215",1728 Stoneman St,Dallas,TX,75215,FALSE,3,3,2145,32.751312,-96.763794,FALSE,"{'type': 'PRICE_REDUCTION', 'text': '$36,000 (Nov 7)'}",,ForSale,For Sale (Broker),585000
80229457,80229457,https://photos.zillowstatic.com/fp/a85d44baa089f5115483b287829bfa2b-p_e.jpg,TRUE,https://www.zillow.com/homedetails/2408-Victory-Park-Ln-APT-1035-Dallas-TX-75219/80229457_zpid/,FOR_SALE,Condo for sale,$,795000,795000,"2408 Victory Park Ln APT 1035, Dallas, TX 75219",2408 Victory Park Ln APT 1035,Dallas,TX,75219,FALSE,2,2,1883,32.788754,-96.80954,FALSE,"{'type': 'PRICE_REDUCTION', 'text': '$80,000 (Nov 14)'}",,ForSale,For Sale (Broker),827900
26824571,26824571,"https://maps.googleapis.com/maps/api/staticmap?mobile=false&sensor=true&maptype=satellite&size=575x242&zoom=17&center=32.6702766418457,-96.83677673339844&key=AIzaSyBJsNQO5ZeG-XAbqqWLKwG08fWITSxg33w&signature=2SZCayxfnpp-aMIkxl2qB-DNTDQ=",,https://www.zillow.com/homedetails/6342-Autumn-Woods-Trl-Dallas-TX-75232/26824571_zpid/,FOR_SALE,House for sale,$,269999,269999,"6342 Autumn Woods Trl, Dallas, TX 75232",6342 Autumn Woods Trl,Dallas,TX,75232,FALSE,3,2,2082,32.670277,-96.83678,FALSE,"{'type': 'TIME_ON_INFO', 'text': '21 hours ago', 'data': {'isFresh': False}}",,ForSale,For Sale (Broker),302500
26784699,26784699,https://photos.zillowstatic.com/fp/47cfb3b9aafaf0eaac9a6a149a61111a-p_e.jpg,TRUE,https://www.zillow.com/homedetails/3416-Oak-Creek-Cir-Dallas-TX-75227/26784699_zpid/,FOR_SALE,House for sale,$,399000,399000,"3416 Oak Creek Cir, Dallas, TX 75227",3416 Oak Creek Cir,Dallas,TX,75227,FALSE,5,3,1950,32.766445,-96.69449,FALSE,"{'type': 'PRICE_REDUCTION', 'text': '$30,900 (Nov 15)'}",,ForSale,For Sale (Broker),429700
26873010,26873010,https://photos.zillowstatic.com/fp/b63c154097ba0c05a2bfe38aca6f8b0b-p_e.jpg,TRUE,https://www.zillow.com/homedetails/15712-Kingscrest-Cir-Dallas-TX-75248/26873010_zpid/,FOR_SALE,House for sale,$,449900,449900,"15712 Kingscrest Cir, Dallas, TX 75248",15712 Kingscrest Cir,Dallas,TX,75248,FALSE,3,2,2006,32.96253,-96.78115,FALSE,"{'type': 'PRICE_REDUCTION', 'text': '$39,600 (Nov 2)'}",,ForSale,For Sale (Broker),480600
26824223,26824223,https://photos.zillowstatic.com/fp/75de6a3fb1655b40876668cd814ba2e7-p_e.jpg,TRUE,https://www.zillow.com/homedetails/1108-Glen-Park-Dr-Dallas-TX-75241/26824223_zpid/,FOR_SALE,House for sale,$,209900,209900,"1108 Glen Park Dr, Dallas, TX 75241",1108 Glen Park Dr,Dallas,TX,75241,FALSE,3,2,1595,32.67605,-96.80712,FALSE,"{'type': 'DAYS_ON', 'text': '1 day on Zillow'}",,ForSale,For Sale (Broker),238400
26759656,26759656,https://photos.zillowstatic.com/fp/cefb1fcc75d4bd299654c27c8d5ba31f-p_e.jpg,TRUE,https://www.zillow.com/homedetails/9642-Hathaway-St-Dallas-TX-75220/26759656_zpid/,FOR_SALE,House for sale,$,2599000,2599000,"9642 Hathaway St, Dallas, TX 75220",9642 Hathaway St,Dallas,TX,75220,FALSE,6,5,5586,32.875168,-96.81081,FALSE,"{'type': 'OPEN_HOUSE', 'text': 'Open: Sun. 2-4pm'}",,ForSale,For Sale (Broker),2625800
26695513,26695513,https://photos.zillowstatic.com/fp/29a48ef77ae0634bef71eb4f9505548c-p_e.jpg,TRUE,https://www.zillow.com/homedetails/5210-Ridgedale-Ave-Dallas-TX-75206/26695513_zpid/,FOR_SALE,House for sale,$,799150,799150,"5210 Ridgedale Ave, Dallas, TX 75206",5210 Ridgedale Ave,Dallas,TX,75206,FALSE,3,2,1685,32.825203,-96.781876,FALSE,"{'type': 'PRICE_REDUCTION', 'text': '$25,750 (Nov 16)'}",,ForSale,For Sale (Broker),824900
162181530,162181530,https://photos.zillowstatic.com/fp/5aa3ec3bfa6d88a0b9a58b797fdd289c-p_e.jpg,TRUE,https://www.zillow.com/homedetails/2403-Garden-Dr-Dallas-TX-75215/162181530_zpid/,FOR_SALE,House for sale,$,289900,289900,"2403 Garden Dr, Dallas, TX 75215",2403 Garden Dr,Dallas,TX,75215,FALSE,3,2,1765,32.75094,-96.75684,FALSE,"{'type': 'PRICE_REDUCTION', 'text': '$15,100 (Nov 14)'}",,ForSale,For Sale (Broker),312500
26706221,26706221,https://photos.zillowstatic.com/fp/d12e60b01089b7b853c1d7aa1c5450f4-p_e.jpg,TRUE,https://www.zillow.com/homedetails/6819-Bob-O-Link-Dr-Dallas-TX-75214/26706221_zpid/,FOR_SALE,Lot / Land for sale,$,899900,899900,"6819 Bob O Link Dr, Dallas, TX 75214",6819 Bob O Link Dr,Dallas,TX,75214,FALSE,,,,32.83167,-96.7438,FALSE,"{'type': 'TIME_ON_INFO', 'text': '3 hours ago', 'data': {'isFresh': False}}",,ForSale,For Sale (Broker),922100
26735061,26735061,https://photos.zillowstatic.com/fp/eb9a5488c4937df7080d95250bbffec8-p_e.jpg,TRUE,https://www.zillow.com/homedetails/2118-Fordham-Rd-Dallas-TX-75216/26735061_zpid/,FOR_SALE,House for sale,$,250000,250000,"2118 Fordham Rd, Dallas, TX 75216",2118 Fordham Rd,Dallas,TX,75216,FALSE,4,2,1436,32.70217,-96.790794,FALSE,"{'type': 'OPEN_HOUSE', 'text': 'Open: Wed. 9am-7pm'}",,ForSale,For Sale (Broker),269600
96525884,96525884,https://photos.zillowstatic.com/fp/1a2222ea36954f1a799e0c3390ea6df3-p_e.jpg,TRUE,https://www.zillow.com/homedetails/2404-Alabama-Ave-Dallas-TX-75216/96525884_zpid/,FOR_SALE,New construction,$,360000,360000,"2404 Alabama Ave, Dallas, TX 75216",2404 Alabama Ave,Dallas,TX,75216,FALSE,4,2,2028,32.718876,-96.81901,FALSE,"{'type': 'DAYS_ON', 'text': '2 days on Zillow'}",,ForSale,New Construction,375500
96496564,96496564,https://photos.zillowstatic.com/fp/9dbb65fdea721dcefdb84307526b659c-p_e.jpg,TRUE,https://www.zillow.com/homedetails/12134-Jackson-Creek-Dr-Dallas-TX-75243/96496564_zpid/,FOR_SALE,House for sale,$,610000,610000,"12134 Jackson Creek Dr, Dallas, TX 75243",12134 Jackson Creek Dr,Dallas,TX,75243,FALSE,4,4,3449,32.91389,-96.71673,FALSE,"{'type': 'PRICE_REDUCTION', 'text': '$15,000 (Oct 27)'}",,ForSale,For Sale (Broker),625000
26807227,26807227,https://photos.zillowstatic.com/fp/8e3b4bf604899876b98b4a7301bbf0b9-p_e.jpg,TRUE,https://www.zillow.com/homedetails/10282-Timber-Trail-Dr-Dallas-TX-75229/26807227_zpid/,FOR_SALE,House for sale,$,529000,529000,"10282 Timber Trail Dr, Dallas, TX 75229",10282 Timber Trail Dr,Dallas,TX,75229,FALSE,4,4,2690,32.88594,-96.85653,FALSE,"{'type': 'PRICE_REDUCTION', 'text': '$31,000 (Nov 16)'}",,ForSale,For Sale (Broker),542300
26736070,26736070,https://photos.zillowstatic.com/fp/a0b71ca81284e6862c53a718a47a2af2-p_e.jpg,TRUE,https://www.zillow.com/homedetails/9127-Valley-Chapel-Ln-Dallas-TX-75220/26736070_zpid/,FOR_SALE,House for sale,$,555000,555000,"9127 Valley Chapel Ln, Dallas, TX 75220",9127 Valley Chapel Ln,Dallas,TX,75220,FALSE,3,3,2056,32.86316,-96.84384,FALSE,"{'type': 'PRICE_REDUCTION', 'text': '$20,000 (Nov 14)'}",,ForSale,For Sale (Broker),568100
26827246,26827246,https://photos.zillowstatic.com/fp/6ca078b10ff3375286c102646754d009-p_e.jpg,TRUE,https://www.zillow.com/homedetails/3616-Kiestcrest-Dr-Dallas-TX-75233/26827246_zpid/,FOR_SALE,House for sale,$,429000,429000,"3616 Kiestcrest Dr, Dallas, TX 75233",3616 Kiestcrest Dr,Dallas,TX,75233,FALSE,3,2,2124,32.70188,-96.880615,FALSE,"{'type': 'OPEN_HOUSE', 'text': 'Open: Sun. 1-3pm'}",,ForSale,For Sale (Broker),439800
26740652,26740652,https://photos.zillowstatic.com/fp/0f40ca2ffd24f8272ae068322607f7b1-p_e.jpg,TRUE,https://www.zillow.com/homedetails/8180-San-Cristobal-Dr-Dallas-TX-75218/26740652_zpid/,FOR_SALE,House for sale,$,659000,659000,"8180 San Cristobal Dr, Dallas, TX 75218",8180 San Cristobal Dr,Dallas,TX,75218,FALSE,4,3,2668,32.808754,-96.71528,FALSE,"{'type': 'PRICE_REDUCTION', 'text': '$10,000 (Nov 15)'}",,ForSale,For Sale (Broker),669003
26712356,26712356,https://photos.zillowstatic.com/fp/5abde523178f8ab8b38324b8bb566b7a-p_e.jpg,TRUE,https://www.zillow.com/homedetails/922-S-Waverly-Dr-Dallas-TX-75208/26712356_zpid/,FOR_SALE,House for sale,$,339999,339999,"922 S Waverly Dr, Dallas, TX 75208",922 S Waverly Dr,Dallas,TX,75208,FALSE,3,2,1050,32.736217,-96.84885,FALSE,"{'type': 'PRICE_REDUCTION', 'text': '$10,000 (Nov 15)'}",,ForSale,For Sale (Broker),350000
26846226,26846226,https://photos.zillowstatic.com/fp/062174e41d0876bb22fd8fde45cdf624-p_e.jpg,TRUE,https://www.zillow.com/homedetails/3310-Bellingham-Ct-Dallas-TX-75228/26846226_zpid/,FOR_SALE,House for sale,$,379000,379000,"3310 Bellingham Ct, Dallas, TX 75228",3310 Bellingham Ct,Dallas,TX,75228,FALSE,3,2,1960,32.79969,-96.69182,FALSE,"{'type': 'PRICE_REDUCTION', 'text': '$10,000 (Nov 15)'}",,ForSale,For Sale (Broker),388900
26915531,26915531,https://photos.zillowstatic.com/fp/70aa74d705ed76fd8151db866e298e0a-p_e.jpg,TRUE,https://www.zillow.com/homedetails/8708-Wood-Homestead-Dr-Dallas-TX-75249/26915531_zpid/,FOR_SALE,House for sale,$,385000,385000,"8708 Wood Homestead Dr, Dallas, TX 75249",8708 Wood Homestead Dr,Dallas,TX,75249,FALSE,4,3,2698,32.649284,-96.95493,FALSE,"{'type': 'PRICE_REDUCTION', 'text': '$10,000 (Nov 16)'}",,ForSale,For Sale (Broker),394700
26873308,26873308,https://photos.zillowstatic.com/fp/ca1882a86ca7dd223131cc03fcef5f5b-p_e.jpg,TRUE,https://www.zillow.com/homedetails/7317-Clearhaven-Dr-Dallas-TX-75248/26873308_zpid/,FOR_SALE,House for sale,$,675000,675000,"7317 Clearhaven Dr, Dallas, TX 75248",7317 Clearhaven Dr,Dallas,TX,75248,FALSE,4,3,2379,32.967297,-96.781746,FALSE,"{'type': 'PRICE_REDUCTION', 'text': '$25,000 (Nov 16)'}",,ForSale,For Sale (Broker),684500
26802364,26802364,https://photos.zillowstatic.com/fp/96f012ac6a47b3e1613957a10e9f1195-p_e.jpg,TRUE,https://www.zillow.com/homedetails/8740-Odom-Dr-Dallas-TX-75217/26802364_zpid/,FOR_SALE,House for sale,$,225000,225000,"8740 Odom Dr, Dallas, TX 75217",8740 Odom Dr,Dallas,TX,75217,FALSE,3,2,1401,32.722908,-96.66904,FALSE,"{'type': 'DAYS_ON', 'text': '2 days on Zillow'}",,ForSale,For Sale (Broker),232700
26899041,26899041,https://photos.zillowstatic.com/fp/67f680d0d7a79a25ab5e4fd663ed2c5b-p_e.jpg,TRUE,https://www.zillow.com/homedetails/5757-E-University-Blvd-APT-27N-Dallas-TX-75206/26899041_zpid/,FOR_SALE,Condo for sale,$,230000,230000,"5757 E University Blvd APT 27N, Dallas, TX 75206",5757 E University Blvd APT 27N,Dallas,TX,75206,FALSE,2,2,914,32.845695,-96.768005,FALSE,"{'type': 'PRICE_REDUCTION', 'text': '$7,000 (Oct 25)'}",,ForSale,For Sale (Broker),237000
26836122,26836122,https://photos.zillowstatic.com/fp/6b8e1a503961c07c6978f1c59f61a6f5-p_e.jpg,TRUE,https://www.zillow.com/homedetails/3935-Abilene-St-Dallas-TX-75212/26836122_zpid/,FOR_SALE,New construction,$,339000,339000,"3935 Abilene St, Dallas, TX 75212",3935 Abilene St,Dallas,TX,75212,FALSE,4,3,2687,32.789986,-96.90062,FALSE,"{'type': 'DAYS_ON', 'text': '63 days on Zillow'}",,ForSale,New Construction,345500
26887466,26887466,https://photos.zillowstatic.com/fp/2254471bb81578611d1259573c586171-p_e.jpg,TRUE,https://www.zillow.com/homedetails/3034-Housley-Dr-Dallas-TX-75228/26887466_zpid/,FOR_SALE,House for sale,$,329900,329900,"3034 Housley Dr, Dallas, TX 75228",3034 Housley Dr,Dallas,TX,75228,FALSE,3,2,1960,32.85128,-96.660774,FALSE,"{'type': 'PRICE_REDUCTION', 'text': '$5,000 (Nov 15)'}",,ForSale,For Sale (Broker),334900
26923784,26923784,https://photos.zillowstatic.com/fp/7cc3ad3d50254be910244ff31854833b-p_e.jpg,TRUE,https://www.zillow.com/homedetails/3516-Parkridge-Dr-APT-109-Dallas-TX-75234/26923784_zpid/,FOR_SALE,Condo for sale,$,180000,180000,"3516 Parkridge Dr APT 109, Dallas, TX 75234",3516 Parkridge Dr APT 109,Dallas,TX,75234,FALSE,2,2,1122,32.91169,-96.86001,FALSE,"{'type': 'TIME_ON_INFO', 'text': '23 hours ago', 'data': {'isFresh': False}}",,ForSale,For Sale (Broker),185000
333139574,333139574,https://photos.zillowstatic.com/fp/be21cbb44b0a5c3a5e1b9661dd6c2366-p_e.jpg,TRUE,https://www.zillow.com/homedetails/14140-Greenhaw-Ln-Dallas-TX-75253/333139574_zpid/,FOR_SALE,House for sale,$,275000,275000,"14140 Greenhaw Ln, Dallas, TX 75253",14140 Greenhaw Ln,Dallas,TX,75253,FALSE,3,2,1542,32.67749,-96.5882,FALSE,"{'type': 'PRICE_REDUCTION', 'text': '$7,400 (Nov 16)'}",,ForSale,For Sale (Broker),279000
26784085,26784085,https://photos.zillowstatic.com/fp/acbbed28253ad5a4f405cf774a007d02-p_e.jpg,TRUE,https://www.zillow.com/homedetails/3041-Springview-Ave-Dallas-TX-75216/26784085_zpid/,FOR_SALE,New construction,$,309000,309000,"3041 Springview Ave, Dallas, TX 75216",3041 Springview Ave,Dallas,TX,75216,FALSE,4,2,1858,32.715202,-96.77436,FALSE,"{'type': 'DAYS_ON', 'text': '7 days on Zillow'}",,ForSale,New Construction,312600
26857551,26857551,https://photos.zillowstatic.com/fp/8824728119d227e2995e3f235c5fde42-p_e.jpg,TRUE,https://www.zillow.com/homedetails/633-Kelso-Dr-Dallas-TX-75211/26857551_zpid/,FOR_SALE,House for sale,$,199900,199900,"633 Kelso Dr, Dallas, TX 75211",633 Kelso Dr,Dallas,TX,75211,FALSE,3,2,1270,32.73959,-96.92359,FALSE,"{'type': 'DAYS_ON', 'text': '34 days on Zillow'}",,ForSale,For Sale (Broker),202800
26758392,26758392,https://photos.zillowstatic.com/fp/be5df74bbd66f453e1b56f909b5af78f-p_e.jpg,TRUE,https://www.zillow.com/homedetails/4310-Bonham-St-Dallas-TX-75229/26758392_zpid/,FOR_SALE,House for sale,$,415000,415000,"4310 Bonham St, Dallas, TX 75229",4310 Bonham St,Dallas,TX,75229,FALSE,3,2,1152,32.888287,-96.83606,FALSE,"{'type': 'PRICE_REDUCTION', 'text': '$10,000 (Nov 14)'}",,ForSale,For Sale (Broker),417600
26712333,26712333,https://photos.zillowstatic.com/fp/aa60cd78cabf54531ae3989265cc6707-p_e.jpg,TRUE,https://www.zillow.com/homedetails/908-S-Brighton-Ave-Dallas-TX-75208/26712333_zpid/,FOR_SALE,House for sale,$,410000,410000,"908 S Brighton Ave, Dallas, TX 75208",908 S Brighton Ave,Dallas,TX,75208,FALSE,4,3,1676,32.736732,-96.85005,FALSE,"{'type': 'DAYS_ON', 'text': '11 days on Zillow'}",,ForSale,For Sale (Broker),412500
26786581,26786581,https://photos.zillowstatic.com/fp/b6f4ff2ad18fe890cd0da908385cedb2-p_e.jpg,TRUE,https://www.zillow.com/homedetails/9817-Bluff-Dale-Dr-Dallas-TX-75218/26786581_zpid/,FOR_SALE,House for sale,$,679000,679000,"9817 Bluff Dale Dr, Dallas, TX 75218",9817 Bluff Dale Dr,Dallas,TX,75218,FALSE,3,2,2086,32.848343,-96.70809,FALSE,"{'type': 'DAYS_ON', 'text': '35 days on Zillow'}",,ForSale,For Sale (Broker),680400
26743382,26743382,https://photos.zillowstatic.com/fp/f071e08ba89e568c4cfc775594bac9d4-p_e.jpg,TRUE,https://www.zillow.com/homedetails/10504-Lippitt-Ave-Dallas-TX-75218/26743382_zpid/,FOR_SALE,House for sale,$,625000,625000,"10504 Lippitt Ave, Dallas, TX 75218",10504 Lippitt Ave,Dallas,TX,75218,FALSE,3,2,1904,32.85232,-96.70064,FALSE,"{'type': 'DAYS_ON', 'text': '19 days on Zillow'}",,ForSale,For Sale (Broker),626300
27121493,27121493,https://photos.zillowstatic.com/fp/0d63401e8f0a701a1080700a758613b1-p_e.jpg,TRUE,https://www.zillow.com/homedetails/822-Hartford-Ln-Lancaster-TX-75134/27121493_zpid/,FOR_SALE,House for sale,$,209900,209900,"822 Hartford Ln, Lancaster, TX 75134",822 Hartford Ln,Lancaster,TX,75134,FALSE,3,2,1355,32.623848,-96.766655,FALSE,"{'type': 'PRICE_REDUCTION', 'text': '$10,000 (Nov 8)'}",,ForSale,For Sale (Broker),211100
26868476,26868476,https://photos.zillowstatic.com/fp/ac7c741e6600ed8e5422d6b3b4f31c61-p_e.jpg,TRUE,https://www.zillow.com/homedetails/9412-Moss-Haven-Dr-Dallas-TX-75231/26868476_zpid/,FOR_SALE,House for sale,$,1350000,1350000,"9412 Moss Haven Dr, Dallas, TX 75231",9412 Moss Haven Dr,Dallas,TX,75231,FALSE,5,4,3694,32.891434,-96.74199,FALSE,"{'type': 'DAYS_ON', 'text': '35 days on Zillow'}",,ForSale,For Sale (Broker),1351100
26634865,26634865,https://photos.zillowstatic.com/fp/aff8083e6433d7d53fc3666f7c85598f-p_e.jpg,TRUE,https://www.zillow.com/homedetails/7621-McCallum-Blvd-APT-110-Dallas-TX-75252/26634865_zpid/,FOR_SALE,Condo for sale,$,115000,115000,"7621 McCallum Blvd APT 110, Dallas, TX 75252",7621 McCallum Blvd APT 110,Dallas,TX,75252,FALSE,1,1,591,32.98822,-96.77667,FALSE,"{'type': '3D_HOME', 'text': '3D Tour'}",,ForSale,For Sale (Broker),115900
26634869,26634869,https://photos.zillowstatic.com/fp/fe857d8973610f230bb8d7598662f9c3-p_e.jpg,TRUE,https://www.zillow.com/homedetails/7621-McCallum-Blvd-APT-115-Dallas-TX-75252/26634869_zpid/,FOR_SALE,Condo for sale,$,108000,108000,"7621 McCallum Blvd APT 115, Dallas, TX 75252",7621 McCallum Blvd APT 115,Dallas,TX,75252,FALSE,1,1,585,32.98822,-96.77667,FALSE,"{'type': '3D_HOME', 'text': '3D Tour'}",,ForSale,For Sale (Broker),108800
27291567,27291567,https://photos.zillowstatic.com/fp/19c64c726c0f04b6fd6d53e515ae2ec6-p_e.jpg,TRUE,https://www.zillow.com/homedetails/3916-Granbury-Dr-Dallas-TX-75287/27291567_zpid/,FOR_SALE,House for sale,$,530000,530000,"3916 Granbury Dr, Dallas, TX 75287",3916 Granbury Dr,Dallas,TX,75287,FALSE,4,4,2375,33.000835,-96.845764,FALSE,"{'type': 'OPEN_HOUSE', 'text': 'Open: Sat. 2-5pm'}",,ForSale,For Sale (Broker),530300
96505016,96505016,https://photos.zillowstatic.com/fp/8ac91cfe074f5561dfa3c1f8b63ed2ca-p_e.jpg,TRUE,https://www.zillow.com/homedetails/1618-Herald-St-Dallas-TX-75215/96505016_zpid/,FOR_SALE,House for sale,$,249700,249700,"1618 Herald St, Dallas, TX 75215",1618 Herald St,Dallas,TX,75215,FALSE,4,2,1285,32.747257,-96.76234,FALSE,"{'type': 'PRICE_REDUCTION', 'text': '$200 (Oct 11)'}",,ForSale,For Sale (Broker),249901
26705839,26705839,https://photos.zillowstatic.com/fp/dc74136608acdecb768be54666684c31-p_e.jpg,TRUE,https://www.zillow.com/homedetails/6937-Greentree-Ln-Dallas-TX-75214/26705839_zpid/,FOR_SALE,House for sale,$,588000,588000,"6937 Greentree Ln, Dallas, TX 75214",6937 Greentree Ln,Dallas,TX,75214,FALSE,3,2,1434,32.845524,-96.73815,FALSE,"{'type': 'DAYS_ON', 'text': '8 days on Zillow'}",,ForSale,For Sale (Broker),588200
26747194,26747194,https://photos.zillowstatic.com/fp/18db4265c2ceeda33648ae002bfbc92b-p_e.jpg,TRUE,https://www.zillow.com/homedetails/516-Edge-Lake-Dr-Dallas-TX-75218/26747194_zpid/,FOR_SALE,House for sale,$,600000,600000,"516 Edge Lake Dr, Dallas, TX 75218",516 Edge Lake Dr,Dallas,TX,75218,FALSE,3,2,1975,32.849476,-96.714355,FALSE,"{'type': 'DAYS_ON', 'text': '1 day on Zillow'}",,ForSale,For Sale (Broker),600200
26765866,26765866,https://photos.zillowstatic.com/fp/7bc3f1161bf66aaadfc244213902533c-p_e.jpg,TRUE,https://www.zillow.com/homedetails/3155-E-Ledbetter-Dr-Dallas-TX-75216/26765866_zpid/,FOR_SALE,House for sale,$,235000,235000,"3155 E Ledbetter Dr, Dallas, TX 75216",3155 E Ledbetter Dr,Dallas,TX,75216,FALSE,3,2,1515,32.698017,-96.765724,FALSE,"{'type': 'DAYS_ON', 'text': '21 days on Zillow'}",,ForSale,For Sale (Broker),235117
53081297,53081297,https://photos.zillowstatic.com/fp/b71068e9117847023d0e308e3a732509-p_e.jpg,TRUE,https://www.zillow.com/homedetails/18036-Whispering-Gables-Ln-Dallas-TX-75287/53081297_zpid/,FOR_SALE,House for sale,$,343000,343000,"18036 Whispering Gables Ln, Dallas, TX 75287",18036 Whispering Gables Ln,Dallas,TX,75287,FALSE,3,2,1327,32.995167,-96.83966,FALSE,"{'type': 'PRICE_REDUCTION', 'text': '$7,000 (Oct 15)'}",,ForSale,For Sale (Broker),343114
26630554,26630554,https://photos.zillowstatic.com/fp/5273cf074a58ce330ca2db540b155f69-p_e.jpg,TRUE,https://www.zillow.com/homedetails/5859-Frankford-Rd-APT-605-Dallas-TX-75252/26630554_zpid/,FOR_SALE,Condo for sale,$,300000,300000,"5859 Frankford Rd APT 605, Dallas, TX 75252",5859 Frankford Rd APT 605,Dallas,TX,75252,FALSE,2,3,1256,32.998928,-96.80367,FALSE,"{'type': 'DAYS_ON', 'text': '68 days on Zillow'}",,ForSale,For Sale (Broker),300100
26724386,26724386,https://photos.zillowstatic.com/fp/cafb1998a28a6df39589a234646dbe28-p_e.jpg,TRUE,https://www.zillow.com/homedetails/1519-Fordham-Rd-Dallas-TX-75216/26724386_zpid/,FOR_SALE,House for sale,$,99900,99900,"1519 Fordham Rd, Dallas, TX 75216",1519 Fordham Rd,Dallas,TX,75216,FALSE,2,3,847,32.69632,-96.803116,FALSE,"{'type': 'DAYS_ON', 'text': '67 days on Zillow'}",,ForSale,For Sale (Broker),100000
26788486,26788486,https://photos.zillowstatic.com/fp/1072fdd6aad2d20e472e517ba74e4445-p_e.jpg,TRUE,https://www.zillow.com/homedetails/4048-Dunhaven-Rd-Dallas-TX-75220/26788486_zpid/,FOR_SALE,House for sale,$,1799000,1799000,"4048 Dunhaven Rd, Dallas, TX 75220",4048 Dunhaven Rd,Dallas,TX,75220,FALSE,4,5,4327,32.871586,-96.84287,FALSE,"{'type': 'OPEN_HOUSE', 'text': 'Open: Sun. 1-3pm'}",,ForSale,For Sale (Broker),1799016
26686523,26686523,https://photos.zillowstatic.com/fp/17f47cbbb9af17a0faf85100a1d357ac-p_e.jpg,TRUE,https://www.zillow.com/homedetails/2226-Dathe-St-Dallas-TX-75215/26686523_zpid/,FOR_SALE,New construction,$,239990,239990,"2226 Dathe St, Dallas, TX 75215",2226 Dathe St,Dallas,TX,75215,FALSE,3,2,1028,32.759193,-96.76827,FALSE,"{'type': 'DAYS_ON', 'text': '8 days on Zillow'}",,ForSale,New Construction,240000
26731017,26731017,https://photos.zillowstatic.com/fp/0cbed60b71fdfeaa10984fa0df2997bb-p_e.jpg,TRUE,https://www.zillow.com/homedetails/6463-Kenwood-Ave-Dallas-TX-75214/26731017_zpid/,FOR_SALE,House for sale,$,714900,714900,"6463 Kenwood Ave, Dallas, TX 75214",6463 Kenwood Ave,Dallas,TX,75214,FALSE,2,2,1508,32.83289,-96.75025,FALSE,"{'type': 'DAYS_ON', 'text': '8 days on Zillow'}",,ForSale,For Sale (Broker),714906
26911583,26911583,https://photos.zillowstatic.com/fp/2c39f20b1e09d63a73170418c74c06d8-p_e.jpg,TRUE,https://www.zillow.com/homedetails/10418-Koko-Head-Cir-Dallas-TX-75218/26911583_zpid/,FOR_SALE,House for sale,$,650000,650000,"10418 Koko Head Cir, Dallas, TX 75218",10418 Koko Head Cir,Dallas,TX,75218,FALSE,3,3,2826,32.85491,-96.70218,FALSE,"{'type': 'DAYS_ON', 'text': '1 day on Zillow'}",,ForSale,For Sale (Broker),650004
26868132,26868132,https://photos.zillowstatic.com/fp/32e00dde0c644c5b55e07fe728b5c517-p_e.jpg,TRUE,https://www.zillow.com/homedetails/9159-Drumcliffe-Ln-Dallas-TX-75231/26868132_zpid/,FOR_SALE,House for sale,$,674900,674900,"9159 Drumcliffe Ln, Dallas, TX 75231",9159 Drumcliffe Ln,Dallas,TX,75231,FALSE,4,2,2116,32.88867,-96.733826,FALSE,"{'type': '3D_HOME', 'text': '3D Tour'}",,ForSale,For Sale (Broker),674904
245229430,245229430,https://photos.zillowstatic.com/fp/8bec10e5a89a6177423ea92986cc9f1c-p_e.jpg,TRUE,https://www.zillow.com/homedetails/3808-Emil-Ct-Dallas-TX-75209/245229430_zpid/,FOR_SALE,House for sale,$,1549990,1549990,"3808 Emil Ct, Dallas, TX 75209",3808 Emil Ct,Dallas,TX,75209,FALSE,3,4,3776,32.82845,-96.819374,FALSE,"{'type': 'PRICE_REDUCTION', 'text': '$50,000 (Oct 26)'}",,ForSale,For Sale (Broker),1549993
26825649,26825649,https://photos.zillowstatic.com/fp/b9733867d4e8133629edb4980bb89bdb-p_e.jpg,TRUE,https://www.zillow.com/homedetails/2124-Matagorda-Dr-Dallas-TX-75232/26825649_zpid/,FOR_SALE,House for sale,$,379900,379900,"2124 Matagorda Dr, Dallas, TX 75232",2124 Matagorda Dr,Dallas,TX,75232,FALSE,4,2,2109,32.673542,-96.853325,FALSE,"{'type': 'DAYS_ON', 'text': '37 days on Zillow'}",,ForSale,For Sale (Broker),379902
26839546,26839546,https://photos.zillowstatic.com/fp/d375f7b3fa5cc6430802a1357baed771-p_e.jpg,TRUE,https://www.zillow.com/homedetails/10650-Steppington-Dr-APT-221-Dallas-TX-75230/26839546_zpid/,FOR_SALE,Condo for sale,$,210000,210000,"10650 Steppington Dr APT 221, Dallas, TX 75230",10650 Steppington Dr APT 221,Dallas,TX,75230,FALSE,2,2,1197,32.89246,-96.7713,FALSE,"{'type': 'PRICE_REDUCTION', 'text': '$10,000 (Nov 10)'}",,ForSale,For Sale (Broker),210002
26725860,26725860,https://photos.zillowstatic.com/fp/9c69db35a1a2f55712ad9464e84d32ac-p_e.jpg,TRUE,https://www.zillow.com/homedetails/7417-Axminster-Ct-Dallas-TX-75214/26725860_zpid/,FOR_SALE,House for sale,$,1795000,1795000,"7417 Axminster Ct, Dallas, TX 75214",7417 Axminster Ct,Dallas,TX,75214,FALSE,5,4,4497,32.846447,-96.73283,FALSE,"{'type': 'OPEN_HOUSE', 'text': 'Open: Sun. 1:30-3pm'}",,ForSale,For Sale (Broker),1795002
162280714,162280714,https://photos.zillowstatic.com/fp/90bfe0657a29fdd435d49bc3ba5b0261-p_e.jpg,TRUE,https://www.zillow.com/homedetails/3737-Juniper-Dr-Dallas-TX-75220/162280714_zpid/,FOR_SALE,House for sale,$,1150000,1150000,"3737 Juniper Dr, Dallas, TX 75220",3737 Juniper Dr,Dallas,TX,75220,FALSE,4,3,3342,32.879322,-96.8545,FALSE,"{'type': 'DAYS_ON', 'text': '124 days on Zillow'}",,ForSale,For Sale (Broker),1150002
26812389,26812389,https://photos.zillowstatic.com/fp/f5c825bb66b9827df82c315408502f92-p_e.jpg,TRUE,https://www.zillow.com/homedetails/11503-Webb-Chapel-Rd-Dallas-TX-75229/26812389_zpid/,FOR_SALE,House for sale,$,305000,305000,"11503 Webb Chapel Rd, Dallas, TX 75229",11503 Webb Chapel Rd,Dallas,TX,75229,FALSE,3,2,1557,32.90556,-96.87272,FALSE,"{'type': 'DAYS_ON', 'text': '20 days on Zillow'}",,ForSale,For Sale (Broker),305002
26856877,26856877,https://photos.zillowstatic.com/fp/f0b416962d51c636b1ce6abfea2e0804-p_e.jpg,TRUE,https://www.zillow.com/homedetails/8360-Ebony-Dr-Dallas-TX-75243/26856877_zpid/,FOR_SALE,House for sale,$,226500,226500,"8360 Ebony Dr, Dallas, TX 75243",8360 Ebony Dr,Dallas,TX,75243,FALSE,4,2,1233,32.918964,-96.75742,FALSE,"{'type': 'DAYS_ON', 'text': '3 days on Zillow'}",,ForSale,For Sale (Broker),226502
26779015,26779015,https://photos.zillowstatic.com/fp/de8efc4761ec8e68d20b1a0ea5b522b8-p_e.jpg,TRUE,https://www.zillow.com/homedetails/3663-Cripple-Creek-Dr-Dallas-TX-75224/26779015_zpid/,FOR_SALE,House for sale,$,949900,949900,"3663 Cripple Creek Dr, Dallas, TX 75224",3663 Cripple Creek Dr,Dallas,TX,75224,FALSE,5,4,3137,32.701363,-96.84453,FALSE,"{'type': 'OPEN_HOUSE', 'text': 'Open: Wed. 5-7:30pm'}",,ForSale,For Sale (Broker),949902
333138948,333138948,https://photos.zillowstatic.com/fp/e713061809cca07ff6e6f55246e9058b-p_e.jpg,TRUE,https://www.zillow.com/homedetails/2222-Moser-Ave-UNIT-106-Dallas-TX-75206/333138948_zpid/,FOR_SALE,Condo for sale,$,530000,530000,"2222 Moser Ave UNIT 106, Dallas, TX 75206",2222 Moser Ave UNIT 106,Dallas,TX,75206,FALSE,2,3,1952,32.812878,-96.77788,FALSE,"{'type': 'DAYS_ON', 'text': '29 days on Zillow'}",,ForSale,For Sale (Broker),530002
26888170,26888170,https://photos.zillowstatic.com/fp/ee0ddaa41775beccc2f0918cb7435550-p_e.jpg,TRUE,https://www.zillow.com/homedetails/9818-Bent-Branch-Ln-Dallas-TX-75243/26888170_zpid/,FOR_SALE,Townhouse for sale,$,239900,239900,"9818 Bent Branch Ln, Dallas, TX 75243",9818 Bent Branch Ln,Dallas,TX,75243,FALSE,2,2,1684,32.921722,-96.735886,FALSE,"{'type': 'PRICE_REDUCTION', 'text': '$10,100 (Nov 3)'}",,ForSale,For Sale (Broker),239901
26736949,26736949,https://photos.zillowstatic.com/fp/1903b68531c0d5d9d4ad11062a3a4cde-p_e.jpg,TRUE,https://www.zillow.com/homedetails/4034-Western-St-Dallas-TX-75211/26736949_zpid/,FOR_SALE,House for sale,$,246000,246000,"4034 Western St, Dallas, TX 75211",4034 Western St,Dallas,TX,75211,FALSE,2,1,792,32.72974,-96.8865,FALSE,"{'type': 'PRICE_REDUCTION', 'text': '$3,000 (Nov 14)'}",,ForSale,For Sale (Broker),246001
26914639,26914639,https://photos.zillowstatic.com/fp/8d901b2e86c9e85ac8ba447784c72298-p_e.jpg,TRUE,https://www.zillow.com/homedetails/8339-High-Brush-Dr-Dallas-TX-75249/26914639_zpid/,FOR_SALE,House for sale,$,349900,349900,"8339 High Brush Dr, Dallas, TX 75249",8339 High Brush Dr,Dallas,TX,75249,FALSE,4,2,2391,32.649117,-96.96929,FALSE,"{'type': 'DAYS_ON', 'text': '32 days on Zillow'}",,ForSale,For Sale (Broker),349901
83997013,83997013,https://photos.zillowstatic.com/fp/226e842bdab1b7930a3f022fa4becb75-p_e.jpg,TRUE,https://www.zillow.com/homedetails/3210-Carlisle-St-UNIT-3-Dallas-TX-75204/83997013_zpid/,FOR_SALE,Condo for sale,$,599999,599999,"3210 Carlisle St UNIT 3, Dallas, TX 75204",3210 Carlisle St UNIT 3,Dallas,TX,75204,FALSE,2,3,2041,32.804207,-96.80227,FALSE,"{'type': 'DAYS_ON', 'text': '58 days on Zillow'}",,ForSale,For Sale (Broker),600000
96506313,96506313,https://photos.zillowstatic.com/fp/6dd7fd74efd9013a35b87fac3190ebb4-p_e.jpg,TRUE,https://www.zillow.com/homedetails/2503-Paseo-Paraiso-Dr-Dallas-TX-75227/96506313_zpid/,FOR_SALE,House for sale,$,255000,255000,"2503 Paseo Paraiso Dr, Dallas, TX 75227",2503 Paseo Paraiso Dr,Dallas,TX,75227,FALSE,3,2,1448,32.75485,-96.65391,FALSE,"{'type': 'DAYS_ON', 'text': '17 days on Zillow'}",,ForSale,For Sale (Broker),255001
26819763,26819763,https://photos.zillowstatic.com/fp/a74c793dce444614c8fa7d1c3b087e07-p_e.jpg,TRUE,https://www.zillow.com/homedetails/9560-Crestshire-Dr-Dallas-TX-75227/26819763_zpid/,FOR_SALE,House for sale,$,199900,199900,"9560 Crestshire Dr, Dallas, TX 75227",9560 Crestshire Dr,Dallas,TX,75227,FALSE,3,2,2064,32.752934,-96.65794,FALSE,"{'type': 'PRICE_REDUCTION', 'text': '$10,000 (Nov 14)'}",,ForSale,For Sale (Broker),199901
26875863,26875863,https://photos.zillowstatic.com/fp/839b79f0a66b0a13bddaaadae9aec9b3-p_e.jpg,TRUE,https://www.zillow.com/homedetails/6715-Barkworth-Dr-Dallas-TX-75248/26875863_zpid/,FOR_SALE,House for sale,$,729000,729000,"6715 Barkworth Dr, Dallas, TX 75248",6715 Barkworth Dr,Dallas,TX,75248,FALSE,4,3,2703,32.98103,-96.79219,FALSE,"{'type': 'DAYS_ON', 'text': '32 days on Zillow'}",,ForSale,For Sale (Broker),729001
26765749,26765749,https://photos.zillowstatic.com/fp/ef77abee56daef4e01c8ba91c1a4a917-p_e.jpg,TRUE,https://www.zillow.com/homedetails/4803-Elena-St-Dallas-TX-75216/26765749_zpid/,FOR_SALE,House for sale,$,240000,240000,"4803 Elena St, Dallas, TX 75216",4803 Elena St,Dallas,TX,75216,FALSE,4,2,1104,32.700222,-96.76822,FALSE,"{'type': 'DAYS_ON', 'text': '2 days on Zillow'}",,ForSale,For Sale (Broker),240001
26783908,26783908,https://photos.zillowstatic.com/fp/073f2bf80f4dba00878c7a3e7d60006b-p_e.jpg,TRUE,https://www.zillow.com/homedetails/2512-E-Illinois-Ave-Dallas-TX-75216/26783908_zpid/,FOR_SALE,House for sale,$,225000,225000,"2512 E Illinois Ave, Dallas, TX 75216",2512 E Illinois Ave,Dallas,TX,75216,FALSE,3,2,936,32.71667,-96.78352,FALSE,"{'type': 'DAYS_ON', 'text': '3 days on Zillow'}",,ForSale,For Sale (Broker),225001
26735921,26735921,https://photos.zillowstatic.com/fp/b07e156926456e0115eedcc437f6d473-p_e.jpg,TRUE,https://www.zillow.com/homedetails/8723-Rexford-Dr-Dallas-TX-75209/26735921_zpid/,FOR_SALE,House for sale,$,1399999,1399999,"8723 Rexford Dr, Dallas, TX 75209",8723 Rexford Dr,Dallas,TX,75209,FALSE,4,5,4594,32.856506,-96.84694,FALSE,"{'type': 'DAYS_ON', 'text': '14 days on Zillow'}",,ForSale,For Sale (Broker),1400000
26638004,26638004,https://photos.zillowstatic.com/fp/e6b2bcbf2d00b6c0299cec1a374b8b8c-p_e.jpg,TRUE,https://www.zillow.com/homedetails/17724-Windflower-Way-Dallas-TX-75252/26638004_zpid/,FOR_SALE,House for sale,$,410000,410000,"17724 Windflower Way, Dallas, TX 75252",17724 Windflower Way,Dallas,TX,75252,FALSE,2,3,1717,32.994423,-96.802055,FALSE,"{'type': 'DAYS_ON', 'text': '26 days on Zillow'}",,ForSale,For Sale (Broker),410001
61871397,61871397,https://photos.zillowstatic.com/fp/6ddd4f9555727cb3f1ce8ed2b7fbd76b-p_e.jpg,TRUE,https://www.zillow.com/homedetails/3225-Turtle-Creek-Blvd-APT-1906-Dallas-TX-75219/61871397_zpid/,FOR_SALE,Condo for sale,$,399000,399000,"3225 Turtle Creek Blvd APT 1906, Dallas, TX 75219",3225 Turtle Creek Blvd APT 1906,Dallas,TX,75219,FALSE,2,2,1152,32.806667,-96.80467,FALSE,"{'type': 'PRICE_REDUCTION', 'text': '$15,000 (Nov 1)'}",,ForSale,For Sale (Broker),399001
26694925,26694925,https://photos.zillowstatic.com/fp/bd28d861a64825c2461e9c5b2dede1e2-p_e.jpg,TRUE,https://www.zillow.com/homedetails/5823-Marquita-Ave-Dallas-TX-75206/26694925_zpid/,FOR_SALE,House for sale,$,1195000,1195000,"5823 Marquita Ave, Dallas, TX 75206",5823 Marquita Ave,Dallas,TX,75206,FALSE,4,3,2998,32.826313,-96.766914,FALSE,"{'type': 'DAYS_ON', 'text': '4 days on Zillow'}",,ForSale,For Sale (Broker),1195000
162814848,162814848,https://photos.zillowstatic.com/fp/d57d0e3f9f56d5025b3bcb8e606083b4-p_e.jpg,TRUE,https://www.zillow.com/homedetails/2100-N-Fitzhugh-Ave-APT-H-Dallas-TX-75204/162814848_zpid/,FOR_SALE,Condo for sale,$,450000,450000,"2100 N Fitzhugh Ave APT H, Dallas, TX 75204",2100 N Fitzhugh Ave APT H,Dallas,TX,75204,FALSE,2,3,1394,32.809544,-96.77995,FALSE,"{'type': 'PRICE_REDUCTION', 'text': '$10,000 (Oct 20)'}",,ForSale,For Sale (Broker),450000
67963705,67963705,https://photos.zillowstatic.com/fp/a52fa8192e5efb23007786875d2f6344-p_e.jpg,TRUE,https://www.zillow.com/homedetails/3215-Buckskin-Dr-Dallas-TX-75241/67963705_zpid/,FOR_SALE,House for sale,$,309900,309900,"3215 Buckskin Dr, Dallas, TX 75241",3215 Buckskin Dr,Dallas,TX,75241,FALSE,3,3,3450,32.654022,-96.76592,FALSE,"{'type': 'DAYS_ON', 'text': '14 days on Zillow'}",,ForSale,For Sale (Broker),309900
26700927,26700927,https://photos.zillowstatic.com/fp/84448c35d361c728985e7ab1f09140d3-p_e.jpg,TRUE,https://www.zillow.com/homedetails/7335-Coronado-Ave-Dallas-TX-75214/26700927_zpid/,FOR_SALE,House for sale,$,595000,595000,"7335 Coronado Ave, Dallas, TX 75214",7335 Coronado Ave,Dallas,TX,75214,FALSE,3,2,1297,32.809288,-96.73193,FALSE,"{'type': 'PRICE_REDUCTION', 'text': '$25,000 (Oct 19)'}",,ForSale,For Sale (Broker),595000
26928981,26928981,https://photos.zillowstatic.com/fp/aea36d6824d4201938958294898c7a2e-p_e.jpg,TRUE,https://www.zillow.com/homedetails/5200-Martel-Ave-APT-3F-Dallas-TX-75206/26928981_zpid/,FOR_SALE,Condo for sale,$,241000,241000,"5200 Martel Ave APT 3F, Dallas, TX 75206",5200 Martel Ave APT 3F,Dallas,TX,75206,FALSE,1,2,1099,32.83161,-96.78035,FALSE,"{'type': 'DAYS_ON', 'text': '7 days on Zillow'}",,ForSale,For Sale (Broker),241000
111958509,111958509,https://photos.zillowstatic.com/fp/5c17c3d79ab77b1c747b8fa540cbb0cf-p_e.jpg,TRUE,https://www.zillow.com/homedetails/8525-Pickwick-Ln-6-Dallas-TX-75225/111958509_zpid/,FOR_SALE,Condo for sale,$,319000,319000,"8525 Pickwick Ln #6, Dallas, TX 75225",8525 Pickwick Ln #6,Dallas,TX,75225,FALSE,2,2,1702,32.866505,-96.800766,FALSE,"{'type': 'PRICE_REDUCTION', 'text': '$20,000 (Nov 1)'}",,ForSale,For Sale (Broker),319000
26893106,26893106,https://photos.zillowstatic.com/fp/47d4642b7c4260210a5aba365a95b307-p_e.jpg,TRUE,https://www.zillow.com/homedetails/7120-Winterberry-Dr-Dallas-TX-75249/26893106_zpid/,FOR_SALE,House for sale,$,267000,267000,"7120 Winterberry Dr, Dallas, TX 75249",7120 Winterberry Dr,Dallas,TX,75249,FALSE,3,2,1453,32.623802,-96.94637,FALSE,"{'type': 'DAYS_ON', 'text': '29 days on Zillow'}",,ForSale,For Sale (Broker),267000
26924187,26924187,https://photos.zillowstatic.com/fp/831677fdfea50592c6a622f12afeb9dc-p_e.jpg,TRUE,https://www.zillow.com/homedetails/5550-Spring-Valley-Rd-APT-E24-Dallas-TX-75254/26924187_zpid/,FOR_SALE,Condo for sale,$,230000,230000,"5550 Spring Valley Rd APT E24, Dallas, TX 75254",5550 Spring Valley Rd APT E24,Dallas,TX,75254,FALSE,2,2,1012,32.93928,-96.81259,FALSE,"{'type': 'DAYS_ON', 'text': '106 days on Zillow'}",,ForSale,For Sale (Broker),230000
26705556,26705556,https://photos.zillowstatic.com/fp/6f9f0ba0b6b9119fc876020961014e07-p_e.jpg,TRUE,https://www.zillow.com/homedetails/6567-Patrick-Dr-Dallas-TX-75214/26705556_zpid/,FOR_SALE,House for sale,$,769000,769000,"6567 Patrick Dr, Dallas, TX 75214",6567 Patrick Dr,Dallas,TX,75214,FALSE,3,2,1676,32.84465,-96.74739,FALSE,"{'type': 'DAYS_ON', 'text': '4 days on Zillow'}",,ForSale,For Sale (Broker),769000
26702367,26702367,https://photos.zillowstatic.com/fp/211c01fcfd0da09c68b0262cf660896c-p_e.jpg,TRUE,https://www.zillow.com/homedetails/2716-W-Shore-Dr-Dallas-TX-75214/26702367_zpid/,FOR_SALE,House for sale,$,725000,725000,"2716 W Shore Dr, Dallas, TX 75214",2716 W Shore Dr,Dallas,TX,75214,FALSE,2,2,1669,32.819916,-96.73753,FALSE,"{'type': 'DAYS_ON', 'text': '12 days on Zillow'}",,ForSale,For Sale (Broker),725000
245229260,245229260,https://photos.zillowstatic.com/fp/df7c595c54eeb1b5c05f11efff6cbe8a-p_e.jpg,TRUE,https://www.zillow.com/homedetails/7880-Minglewood-Ln-Dallas-TX-75231/245229260_zpid/,FOR_SALE,House for sale,$,515000,515000,"7880 Minglewood Ln, Dallas, TX 75231",7880 Minglewood Ln,Dallas,TX,75231,FALSE,2,3,1747,32.888355,-96.76202,FALSE,"{'type': 'PRICE_REDUCTION', 'text': '$10,000 (Nov 14)'}",,ForSale,For Sale (Broker),515000
26734617,26734617,https://photos.zillowstatic.com/fp/8b1e2b27e81460f11b597e0741725080-p_e.jpg,TRUE,https://www.zillow.com/homedetails/4406-Newmore-Ave-Dallas-TX-75209/26734617_zpid/,FOR_SALE,New construction,$,775000,775000,"4406 Newmore Ave, Dallas, TX 75209",4406 Newmore Ave,Dallas,TX,75209,FALSE,3,2,2263,32.849163,-96.834885,FALSE,"{'type': 'DAYS_ON', 'text': '5 days on Zillow'}",,ForSale,New Construction,775000
26907685,26907685,https://photos.zillowstatic.com/fp/c22a3b53ec51a5b240bae97a92c6c58b-p_e.jpg,TRUE,https://www.zillow.com/homedetails/9447-Olde-Towne-Row-Dallas-TX-75227/26907685_zpid/,FOR_SALE,Townhouse for sale,$,99000,99000,"9447 Olde Towne Row, Dallas, TX 75227",9447 Olde Towne Row,Dallas,TX,75227,FALSE,2,2,1140,32.75171,-96.659256,FALSE,"{'type': 'DAYS_ON', 'text': '40 days on Zillow'}",,ForSale,For Sale (Broker),99000
26923530,26923530,https://photos.zillowstatic.com/fp/421e95979ab359d56969d8868ecf478f-p_e.jpg,TRUE,https://www.zillow.com/homedetails/3033-San-Jacinto-St-312-Dallas-TX-75204/26923530_zpid/,FOR_SALE,Condo for sale,$,234500,234500,"3033 San Jacinto St #312, Dallas, TX 75204",3033 San Jacinto St #312,Dallas,TX,75204,FALSE,1,1,967,32.792328,-96.79112,FALSE,"{'type': 'PRICE_REDUCTION', 'text': '$4,500 (Nov 7)'}",,ForSale,For Sale (Broker),234500
26699534,26699534,https://photos.zillowstatic.com/fp/7b4269401742421e5c38740962f046b1-p_e.jpg,TRUE,https://www.zillow.com/homedetails/2308-Harding-St-Dallas-TX-75215/26699534_zpid/,FOR_SALE,House for sale,$,190000,190000,"2308 Harding St, Dallas, TX 75215",2308 Harding St,Dallas,TX,75215,FALSE,4,2,2016,32.748516,-96.75686,FALSE,"{'type': 'DAYS_ON', 'text': '6 days on Zillow'}",,ForSale,For Sale (Broker),190000
53085794,53085794,https://photos.zillowstatic.com/fp/0b553344190bed8ddeb80f4e8012e5c5-p_e.jpg,TRUE,https://www.zillow.com/homedetails/18333-Roehampton-Dr-APT-231-Dallas-TX-75252/53085794_zpid/,FOR_SALE,Condo for sale,$,184000,184000,"18333 Roehampton Dr APT 231, Dallas, TX 75252",18333 Roehampton Dr APT 231,Dallas,TX,75252,FALSE,1,1,584,33.001366,-96.8041,FALSE,"{'type': 'PRICE_REDUCTION', 'text': '$3,000 (Nov 12)'}",,ForSale,For Sale (Broker),184000
26740034,26740034,https://photos.zillowstatic.com/fp/3e0270bfaa22d85b65be8f0f3d38c04f-p_e.jpg,TRUE,https://www.zillow.com/homedetails/8823-Groveland-Dr-Dallas-TX-75218/26740034_zpid/,FOR_SALE,House for sale,$,675000,675000,"8823 Groveland Dr, Dallas, TX 75218",8823 Groveland Dr,Dallas,TX,75218,FALSE,3,2,1583,32.81892,-96.703255,FALSE,"{'type': 'PRICE_REDUCTION', 'text': '$10,000 (Oct 18)'}",,ForSale,For Sale (Broker),675000
26814547,26814547,https://photos.zillowstatic.com/fp/05aaf7b7b99787477fde130d6e527285-p_e.jpg,TRUE,https://www.zillow.com/homedetails/639-Mannington-Dr-Dallas-TX-75232/26814547_zpid/,FOR_SALE,House for sale,$,219000,219000,"639 Mannington Dr, Dallas, TX 75232",639 Mannington Dr,Dallas,TX,75232,FALSE,3,2,1646,32.67156,-96.833275,FALSE,"{'type': 'DAYS_ON', 'text': '5 days on Zillow'}",,ForSale,For Sale (Broker),219000
26738964,26738964,https://photos.zillowstatic.com/fp/451f2f799ee51d2ff34c1846697ebe84-p_e.jpg,TRUE,https://www.zillow.com/homedetails/7031-Holly-Hill-Dr-6-Dallas-TX-75231/26738964_zpid/,FOR_SALE,Condo for sale,$,200000,200000,"7031 Holly Hill Dr #6, Dallas, TX 75231",7031 Holly Hill Dr #6,Dallas,TX,75231,FALSE,2,1,915,32.873184,-96.76254,FALSE,"{'type': 'DAYS_ON', 'text': '5 days on Zillow'}",,ForSale,For Sale (Broker),200000
26748140,26748140,https://photos.zillowstatic.com/fp/5c432607a76f12488799560ef7826407-p_e.jpg,TRUE,https://www.zillow.com/homedetails/5849-Sandhurst-Ln-D-Dallas-TX-75206/26748140_zpid/,FOR_SALE,Condo for sale,$,252500,252500,"5849 Sandhurst Ln #D, Dallas, TX 75206",5849 Sandhurst Ln #D,Dallas,TX,75206,FALSE,2,2,1166,32.844097,-96.766525,FALSE,"{'type': 'PRICE_REDUCTION', 'text': '$2,500 (Nov 14)'}",,ForSale,For Sale (Broker),252500
26714358,26714358,https://photos.zillowstatic.com/fp/d5078dc90662f9af8eeb075ceb382907-p_e.jpg,TRUE,https://www.zillow.com/homedetails/611-N-Montclair-Ave-Dallas-TX-75208/26714358_zpid/,FOR_SALE,House for sale,$,585000,585000,"611 N Montclair Ave, Dallas, TX 75208",611 N Montclair Ave,Dallas,TX,75208,FALSE,3,2,1940,32.749935,-96.84681,FALSE,"{'type': 'OPEN_HOUSE', 'text': 'Open: Sat. 2-4pm'}",,ForSale,For Sale (Broker),585000
26718198,26718198,https://photos.zillowstatic.com/fp/20fbf240ec20ba36d362f7c4b039b6b2-p_e.jpg,TRUE,https://www.zillow.com/homedetails/910-Thomasson-Dr-Dallas-TX-75208/26718198_zpid/,FOR_SALE,House for sale,$,600000,600000,"910 Thomasson Dr, Dallas, TX 75208",910 Thomasson Dr,Dallas,TX,75208,FALSE,3,2,1594,32.755795,-96.83809,FALSE,"{'type': 'DAYS_ON', 'text': '53 days on Zillow'}",,ForSale,For Sale (Broker),600000
26800473,26800473,https://photos.zillowstatic.com/fp/213ba326773ece0677f7411228209ea3-p_e.jpg,TRUE,https://www.zillow.com/homedetails/1520-Pleasant-Dr-Dallas-TX-75217/26800473_zpid/,FOR_SALE,House for sale,$,179900,179900,"1520 Pleasant Dr, Dallas, TX 75217",1520 Pleasant Dr,Dallas,TX,75217,FALSE,3,2,1630,32.73821,-96.67813,FALSE,"{'type': 'DAYS_ON', 'text': '4 days on Zillow'}",,ForSale,For Sale (Broker),179900
26711446,26711446,https://photos.zillowstatic.com/fp/fef4f50c9a1de6501365b54cf7050354-p_e.jpg,TRUE,https://www.zillow.com/homedetails/1010-Cumberland-St-Dallas-TX-75203/26711446_zpid/,FOR_SALE,House for sale,$,369900,369900,"1010 Cumberland St, Dallas, TX 75203",1010 Cumberland St,Dallas,TX,75203,FALSE,4,4,1821,32.736313,-96.8201,FALSE,"{'type': 'DAYS_ON', 'text': '35 days on Zillow'}",,ForSale,For Sale (Broker),369900
26901149,26901149,https://photos.zillowstatic.com/fp/c88665e685ee6764f6b478e06fc33905-p_e.jpg,TRUE,https://www.zillow.com/homedetails/5626-Preston-Oaks-Rd-APT-30C-Dallas-TX-75254/26901149_zpid/,FOR_SALE,Condo for sale,$,250000,250000,"5626 Preston Oaks Rd APT 30C, Dallas, TX 75254",5626 Preston Oaks Rd APT 30C,Dallas,TX,75254,FALSE,3,2,1356,32.943005,-96.813034,FALSE,"{'type': 'PRICE_REDUCTION', 'text': '$20,000 (Oct 17)'}",,ForSale,For Sale (Broker),250000
80235453,80235453,https://photos.zillowstatic.com/fp/d99f158d668bb5bbe4d33d3cb4550d5f-p_e.jpg,TRUE,https://www.zillow.com/homedetails/5111-Manett-St-APT-101-Dallas-TX-75206/80235453_zpid/,FOR_SALE,Condo for sale,$,279000,279000,"5111 Manett St APT 101, Dallas, TX 75206",5111 Manett St APT 101,Dallas,TX,75206,FALSE,2,1,847,32.815155,-96.78236,FALSE,"{'type': 'PRICE_REDUCTION', 'text': '$6,000 (Sep 9)'}",,ForSale,For Sale (Broker),279000
26870602,26870602,https://photos.zillowstatic.com/fp/f4c3bb8cb231b1ad243e0eaaf54ffd36-p_e.jpg,TRUE,https://www.zillow.com/homedetails/6254-Emeraldwood-Pl-Dallas-TX-75254/26870602_zpid/,FOR_SALE,House for sale,$,980000,980000,"6254 Emeraldwood Pl, Dallas, TX 75254",6254 Emeraldwood Pl,Dallas,TX,75254,FALSE,5,5,4084,32.94906,-96.7945,FALSE,"{'type': 'OPEN_HOUSE', 'text': 'Open: Sat. 12-2pm'}",,ForSale,For Sale (Broker),980000
26800268,26800268,https://photos.zillowstatic.com/fp/a478f8e7dd51991037e83c44b6c5ce96-p_e.jpg,TRUE,https://www.zillow.com/homedetails/8633-Tonawanda-Dr-Dallas-TX-75217/26800268_zpid/,FOR_SALE,House for sale,$,290000,290000,"8633 Tonawanda Dr, Dallas, TX 75217",8633 Tonawanda Dr,Dallas,TX,75217,FALSE,3,2,1623,32.743473,-96.67223,FALSE,"{'type': 'DAYS_ON', 'text': '12 days on Zillow'}",,ForSale,For Sale (Broker),290000
26738977,26738977,https://photos.zillowstatic.com/fp/904eea9e82b89921dc84ffac3bbb82b2-p_e.jpg,TRUE,https://www.zillow.com/homedetails/7031-Holly-Hill-Dr-APT-19-Dallas-TX-75231/26738977_zpid/,FOR_SALE,Townhouse for sale,$,200000,200000,"7031 Holly Hill Dr APT 19, Dallas, TX 75231",7031 Holly Hill Dr APT 19,Dallas,TX,75231,FALSE,2,2,1243,32.873184,-96.76254,FALSE,"{'type': 'DAYS_ON', 'text': '19 days on Zillow'}",,ForSale,For Sale (Broker),200000
26904482,26904482,https://photos.zillowstatic.com/fp/f24250be1b44cc385a73cd4cc8ae1e3d-p_e.jpg,TRUE,https://www.zillow.com/homedetails/5226-Fleetwood-Oaks-Ave-115-Dallas-TX-75235/26904482_zpid/,FOR_SALE,Condo for sale,$,215000,215000,"5226 Fleetwood Oaks Ave #115, Dallas, TX 75235",5226 Fleetwood Oaks Ave #115,Dallas,TX,75235,FALSE,2,2,1010,32.81746,-96.829544,FALSE,"{'type': 'DAYS_ON', 'text': '163 days on Zillow'}",,ForSale,For Sale (Broker),215000
26705663,26705663,https://photos.zillowstatic.com/fp/ab829ad731555b7b3054043d621e1bf5-p_e.jpg,TRUE,https://www.zillow.com/homedetails/6760-Patrick-Dr-Dallas-TX-75214/26705663_zpid/,FOR_SALE,House for sale,$,550000,550000,"6760 Patrick Dr, Dallas, TX 75214",6760 Patrick Dr,Dallas,TX,75214,FALSE,2,2,1440,32.84533,-96.74266,FALSE,"{'type': 'DAYS_ON', 'text': '5 days on Zillow'}",,ForSale,For Sale (Broker),550000
26769811,26769811,https://photos.zillowstatic.com/fp/dd14051868488cff728293c1067dda13-p_e.jpg,TRUE,https://www.zillow.com/homedetails/4005-Walker-St-Dallas-TX-75211/26769811_zpid/,FOR_SALE,House for sale,$,199900,199900,"4005 Walker St, Dallas, TX 75211",4005 Walker St,Dallas,TX,75211,FALSE,2,1,832,32.73435,-96.885994,FALSE,"{'type': 'DAYS_ON', 'text': '6 days on Zillow'}",,ForSale,For Sale (Broker),199900
111959654,111959654,https://photos.zillowstatic.com/fp/4addf5628e3c236bef29e4baa84b317d-p_e.jpg,TRUE,https://www.zillow.com/homedetails/3109-Lenway-St-Dallas-TX-75215/111959654_zpid/,FOR_SALE,House for sale,$,260000,260000,"3109 Lenway St, Dallas, TX 75215",3109 Lenway St,Dallas,TX,75215,FALSE,4,3,1561,32.76887,-96.76038,FALSE,"{'type': 'DAYS_ON', 'text': '40 days on Zillow'}",,ForSale,For Sale (Broker),260000
26879769,26879769,https://photos.zillowstatic.com/fp/b11f25b9c8c2f1b5a1afd672bf30cfc3-p_e.jpg,TRUE,https://www.zillow.com/homedetails/12319-High-Meadow-Dr-Dallas-TX-75234/26879769_zpid/,FOR_SALE,House for sale,$,339900,339900,"12319 High Meadow Dr, Dallas, TX 75234",12319 High Meadow Dr,Dallas,TX,75234,FALSE,4,2,2106,32.915955,-96.859314,FALSE,"{'type': 'DAYS_ON', 'text': '23 days on Zillow'}",,ForSale,For Sale (Broker),339900
248831009,248831009,https://photos.zillowstatic.com/fp/75077e77534b6a7fae224e94bc4dfe7b-p_e.jpg,TRUE,https://www.zillow.com/homedetails/3529-Kalterra-Ct-Dallas-TX-75219/248831009_zpid/,FOR_SALE,Townhouse for sale,$,695000,695000,"3529 Kalterra Ct, Dallas, TX 75219",3529 Kalterra Ct,Dallas,TX,75219,FALSE,3,3,2070,32.81303,-96.8056,FALSE,"{'type': '3D_HOME', 'text': '3D Tour'}",,ForSale,For Sale (Broker),695000
26898842,26898842,https://photos.zillowstatic.com/fp/a832de28459d3ad61585acaf33da0c1a-p_e.jpg,TRUE,https://www.zillow.com/homedetails/3105-San-Jacinto-St-APT-215-Dallas-TX-75204/26898842_zpid/,FOR_SALE,Condo for sale,$,254900,254900,"3105 San Jacinto St APT 215, Dallas, TX 75204",3105 San Jacinto St APT 215,Dallas,TX,75204,FALSE,2,2,926,32.792747,-96.79062,FALSE,"{'type': 'DAYS_ON', 'text': '15 days on Zillow'}",,ForSale,For Sale (Broker),254900
80240270,80240270,https://photos.zillowstatic.com/fp/0b202231bf8b9ea3ff7c82f9a52560da-p_e.jpg,TRUE,https://www.zillow.com/homedetails/2201-Wolf-St-APT-3201-Dallas-TX-75201/80240270_zpid/,FOR_SALE,Condo for sale,$,350000,350000,"2201 Wolf St APT 3201, Dallas, TX 75201",2201 Wolf St APT 3201,Dallas,TX,75201,FALSE,1,1,1025,32.796745,-96.808975,FALSE,"{'type': 'OPEN_HOUSE', 'text': 'Open: Sat. 1-3pm'}",,ForSale,For Sale (Broker),350000
118220240,118220240,https://photos.zillowstatic.com/fp/21676eef752944a33556dd68519cd3e8-p_e.jpg,TRUE,https://www.zillow.com/homedetails/5808-Penrose-Ave-Dallas-TX-75206/118220240_zpid/,FOR_SALE,House for sale,$,799000,799000,"5808 Penrose Ave, Dallas, TX 75206",5808 Penrose Ave,Dallas,TX,75206,FALSE,3,3,2573,32.832043,-96.76749,FALSE,"{'type': 'PRICE_REDUCTION', 'text': '$40,000 (Oct 13)'}",,ForSale,For Sale (Broker),799000
26690518,26690518,https://photos.zillowstatic.com/fp/43dcc8b6b7d7180030d1d5af12f4d1e9-p_e.jpg,TRUE,https://www.zillow.com/homedetails/5538-Richard-Ave-Dallas-TX-75206/26690518_zpid/,FOR_SALE,New construction,$,2000000,2000000,"5538 Richard Ave, Dallas, TX 75206",5538 Richard Ave,Dallas,TX,75206,FALSE,4,4,3654,32.81894,-96.772964,FALSE,"{'type': 'OPEN_HOUSE', 'text': 'Open: Sun. 1-3pm'}",,ForSale,New Construction,2000000
26767574,26767574,https://photos.zillowstatic.com/fp/14ca9f6d19471599aa1aecc7b83b5214-p_e.jpg,TRUE,https://www.zillow.com/homedetails/2651-Marfa-Ave-Dallas-TX-75216/26767574_zpid/,FOR_SALE,House for sale,$,200000,200000,"2651 Marfa Ave, Dallas, TX 75216",2651 Marfa Ave,Dallas,TX,75216,FALSE,3,1,792,32.71052,-96.7849,FALSE,"{'type': 'DAYS_ON', 'text': '8 days on Zillow'}",,ForSale,For Sale (Broker),200000
26742962,26742962,https://photos.zillowstatic.com/fp/29d66624e8159d015f2ceb82594cd810-p_e.jpg,TRUE,https://www.zillow.com/homedetails/10424-Hermosa-Dr-Dallas-TX-75218/26742962_zpid/,FOR_SALE,House for sale,$,225000,225000,"10424 Hermosa Dr, Dallas, TX 75218",10424 Hermosa Dr,Dallas,TX,75218,FALSE,2,1,1008,32.837837,-96.68877,FALSE,"{'type': 'DAYS_ON', 'text': '7 days on Zillow'}",,ForSale,For Sale (Broker),225000
26877043,26877043,https://photos.zillowstatic.com/fp/1ec4fbeaa34494b2e29a0c9fb7c294e5-p_e.jpg,TRUE,https://www.zillow.com/homedetails/5907-Copperwood-Ln-1138-Dallas-TX-75248/26877043_zpid/,FOR_SALE,Condo for sale,$,220000,220000,"5907 Copperwood Ln #1138, Dallas, TX 75248",5907 Copperwood Ln #1138,Dallas,TX,75248,FALSE,2,3,1502,32.965916,-96.80696,FALSE,"{'type': 'DAYS_ON', 'text': '9 days on Zillow'}",,ForSale,For Sale (Broker),220000
67956586,67956586,https://photos.zillowstatic.com/fp/bf1e269975bcf5b46ee78741f6661ecb-p_e.jpg,TRUE,https://www.zillow.com/homedetails/2544-Tealmont-Trl-Dallas-TX-75211/67956586_zpid/,FOR_SALE,House for sale,$,234000,234000,"2544 Tealmont Trl, Dallas, TX 75211",2544 Tealmont Trl,Dallas,TX,75211,FALSE,3,2,1349,32.718723,-96.90903,FALSE,"{'type': 'PRICE_REDUCTION', 'text': '$5,000 (Nov 11)'}",,ForSale,For Sale (Broker),234000
53390324,53390324,https://photos.zillowstatic.com/fp/f8f319e87de3861d184f9acc9b79898d-p_e.jpg,TRUE,https://www.zillow.com/homedetails/509-Elm-St-APT-201-Dallas-TX-75202/53390324_zpid/,FOR_SALE,Condo for sale,$,220000,220000,"509 Elm St APT 201, Dallas, TX 75202",509 Elm St APT 201,Dallas,TX,75202,FALSE,1,1,630,32.779694,-96.80806,FALSE,"{'type': 'DAYS_ON', 'text': '77 days on Zillow'}",,ForSale,For Sale (Broker),220000
80220923,80220923,https://photos.zillowstatic.com/fp/4c681802280db53f81df156d2a6c0a40-p_e.jpg,TRUE,https://www.zillow.com/homedetails/4808-Mexico-Ct-Dallas-TX-75236/80220923_zpid/,FOR_SALE,House for sale,$,290000,290000,"4808 Mexico Ct, Dallas, TX 75236",4808 Mexico Ct,Dallas,TX,75236,FALSE,3,2,1494,32.683136,-96.9043,FALSE,"{'type': 'OPEN_HOUSE', 'text': 'Open: Wed. 9am-7pm'}",,ForSale,For Sale (Broker),290000
26929750,26929750,https://photos.zillowstatic.com/fp/fe6bc041353c5f17280db1c2a83ac186-p_e.jpg,TRUE,https://www.zillow.com/homedetails/7340-Skillman-St-APT-808-Dallas-TX-75231/26929750_zpid/,FOR_SALE,Condo for sale,$,175000,175000,"7340 Skillman St APT 808, Dallas, TX 75231",7340 Skillman St APT 808,Dallas,TX,75231,FALSE,3,2,1156,32.88276,-96.73343,FALSE,"{'type': 'DAYS_ON', 'text': '19 days on Zillow'}",,ForSale,For Sale (Broker),175000
26859551,26859551,https://photos.zillowstatic.com/fp/8035bfd332a0702d6a9990e32440943c-p_e.jpg,TRUE,https://www.zillow.com/homedetails/13340-Kit-Ln-B05-Dallas-TX-75240/26859551_zpid/,FOR_SALE,Condo for sale,$,249900,249900,"13340 Kit Ln #B05, Dallas, TX 75240",13340 Kit Ln #B05,Dallas,TX,75240,FALSE,3,2,1704,32.929623,-96.765816,FALSE,"{'type': 'DAYS_ON', 'text': '16 days on Zillow'}",,ForSale,For Sale (Broker),249900
26815058,26815058,https://photos.zillowstatic.com/fp/97daf30a4d94c9bd593bec95166f4ef6-p_e.jpg,TRUE,https://www.zillow.com/homedetails/902-Highfall-Dr-Dallas-TX-75232/26815058_zpid/,FOR_SALE,House for sale,$,284900,284900,"902 Highfall Dr, Dallas, TX 75232",902 Highfall Dr,Dallas,TX,75232,FALSE,3,2,2000,32.662514,-96.835464,FALSE,"{'type': 'PRICE_REDUCTION', 'text': '$15,000 (Nov 5)'}",,ForSale,For Sale (Broker),284900
26878573,26878573,https://photos.zillowstatic.com/fp/350c27a933dfeb4f6fbbdac32d4339c1-p_e.jpg,TRUE,https://www.zillow.com/homedetails/6324-Hidden-Trail-Dr-Dallas-TX-75241/26878573_zpid/,FOR_SALE,House for sale,$,159900,159900,"6324 Hidden Trail Dr, Dallas, TX 75241",6324 Hidden Trail Dr,Dallas,TX,75241,FALSE,4,2,1187,32.6634,-96.76749,FALSE,"{'type': 'PRICE_REDUCTION', 'text': '$10,000 (Nov 7)'}",,ForSale,For Sale (Broker),159900
26740615,26740615,https://photos.zillowstatic.com/fp/54167c0bea02a3a1c65a100ac53ba1db-p_e.jpg,TRUE,https://www.zillow.com/homedetails/8320-San-Leandro-Dr-Dallas-TX-75218/26740615_zpid/,FOR_SALE,House for sale,$,999500,999500,"8320 San Leandro Dr, Dallas, TX 75218",8320 San Leandro Dr,Dallas,TX,75218,FALSE,4,3,2598,32.811687,-96.71272,FALSE,"{'type': 'OPEN_HOUSE', 'text': 'Open: Sun. 1:30-3pm'}",,ForSale,For Sale (Broker),999500
26906909,26906909,https://photos.zillowstatic.com/fp/7a134ff1b48c275b44cffe441d39f030-p_e.jpg,TRUE,https://www.zillow.com/homedetails/1460-Glencliff-Dr-Dallas-TX-75217/26906909_zpid/,FOR_SALE,House for sale,$,249900,249900,"1460 Glencliff Dr, Dallas, TX 75217",1460 Glencliff Dr,Dallas,TX,75217,FALSE,4,2,1799,32.73915,-96.661934,FALSE,"{'type': 'DAYS_ON', 'text': '6 days on Zillow'}",,ForSale,For Sale (Broker),249900
26875348,26875348,https://photos.zillowstatic.com/fp/7ff26ee69e90902407e7548e2aad74f7-p_e.jpg,TRUE,https://www.zillow.com/homedetails/7618-Kilmichael-Ln-Dallas-TX-75248/26875348_zpid/,FOR_SALE,House for sale,$,1210000,1210000,"7618 Kilmichael Ln, Dallas, TX 75248",7618 Kilmichael Ln,Dallas,TX,75248,FALSE,4,3,3681,32.976994,-96.77485,FALSE,"{'type': 'DAYS_ON', 'text': '22 days on Zillow'}",,ForSale,For Sale (Broker),1210000
26710690,26710690,https://photos.zillowstatic.com/fp/93bc5b9e2ad79131f0e79d2c44dbb31b-p_e.jpg,TRUE,https://www.zillow.com/homedetails/1002-Woodlawn-Ave-Dallas-TX-75208/26710690_zpid/,FOR_SALE,House for sale,$,450000,450000,"1002 Woodlawn Ave, Dallas, TX 75208",1002 Woodlawn Ave,Dallas,TX,75208,FALSE,3,2,1651,32.754795,-96.83,FALSE,"{'type': 'DAYS_ON', 'text': '5 days on Zillow'}",,ForSale,For Sale (Broker),450000
26757573,26757573,https://photos.zillowstatic.com/fp/9f8a238b29f4a9b9a010a66fa2c483e6-p_e.jpg,TRUE,https://www.zillow.com/homedetails/5727-Orchid-Ln-Dallas-TX-75230/26757573_zpid/,FOR_SALE,House for sale,$,799000,799000,"5727 Orchid Ln, Dallas, TX 75230",5727 Orchid Ln,Dallas,TX,75230,FALSE,3,3,2378,32.892567,-96.806656,FALSE,"{'type': 'OPEN_HOUSE', 'text': 'Open: Sun. 1-3pm'}",,ForSale,For Sale (Broker),799000
26772445,26772445,https://photos.zillowstatic.com/fp/98f50df7178659be50a34c7066b1911d-p_e.jpg,TRUE,https://www.zillow.com/homedetails/2718-Grayson-Dr-Dallas-TX-75224/26772445_zpid/,FOR_SALE,House for sale,$,299900,299900,"2718 Grayson Dr, Dallas, TX 75224",2718 Grayson Dr,Dallas,TX,75224,FALSE,3,2,1530,32.71418,-96.83337,FALSE,"{'type': 'DAYS_ON', 'text': '25 days on Zillow'}",,ForSale,For Sale (Broker),299900
26891893,26891893,https://photos.zillowstatic.com/fp/982031bf1ef37e19f75169353d8c19ce-p_e.jpg,TRUE,https://www.zillow.com/homedetails/7219-Lost-Canyon-Dr-Dallas-TX-75249/26891893_zpid/,FOR_SALE,House for sale,$,150000,150000,"7219 Lost Canyon Dr, Dallas, TX 75249",7219 Lost Canyon Dr,Dallas,TX,75249,FALSE,3,2,1447,32.63979,-96.95098,FALSE,"{'type': 'DAYS_ON', 'text': '4 days on Zillow'}",,ForSale,For Sale (Broker),150000
26819740,26819740,https://photos.zillowstatic.com/fp/e755972ae660195a90571b7d9886f001-p_e.jpg,TRUE,https://www.zillow.com/homedetails/9565-Crestshire-Dr-Dallas-TX-75227/26819740_zpid/,FOR_SALE,House for sale,$,225000,225000,"9565 Crestshire Dr, Dallas, TX 75227",9565 Crestshire Dr,Dallas,TX,75227,FALSE,3,2,1316,32.753414,-96.65769,FALSE,"{'type': 'OPEN_HOUSE', 'text': 'Open: Wed. 9am-7pm'}",,ForSale,For Sale (Broker),225000
89385166,89385166,https://photos.zillowstatic.com/fp/f5bced37f0af81b49953ca5e45a272fc-p_e.jpg,TRUE,https://www.zillow.com/homedetails/1722-Lewis-Ct-Dallas-TX-75206/89385166_zpid/,FOR_SALE,Townhouse for sale,$,505000,505000,"1722 Lewis Ct, Dallas, TX 75206",1722 Lewis Ct,Dallas,TX,75206,FALSE,2,3,1466,32.811867,-96.76805,FALSE,"{'type': 'DAYS_ON', 'text': '47 days on Zillow'}",,ForSale,For Sale (Broker),505000
26906207,26906207,https://photos.zillowstatic.com/fp/20a81dac36172b500aa608f7eec0724f-p_e.jpg,TRUE,https://www.zillow.com/homedetails/10825-Gable-Dr-Dallas-TX-75229/26906207_zpid/,FOR_SALE,House for sale,$,260000,260000,"10825 Gable Dr, Dallas, TX 75229",10825 Gable Dr,Dallas,TX,75229,FALSE,3,2,1229,32.896317,-96.87453,FALSE,"{'type': 'DAYS_ON', 'text': '5 days on Zillow'}",,ForSale,For Sale (Broker),260000
26922660,26922660,https://photos.zillowstatic.com/fp/cdbeafab836d92863f14f4c5293e9a34-p_e.jpg,TRUE,https://www.zillow.com/homedetails/5407-Bryan-St-APT-B202-Dallas-TX-75206/26922660_zpid/,FOR_SALE,Condo for sale,$,280000,280000,"5407 Bryan St APT B202, Dallas, TX 75206",5407 Bryan St APT B202,Dallas,TX,75206,FALSE,1,2,872,32.807037,-96.76731,FALSE,"{'type': 'DAYS_ON', 'text': '12 days on Zillow'}",,ForSale,For Sale (Broker),280000
2102619588,2102619588,https://photos.zillowstatic.com/fp/ef5af96bf787e844ac67cf594fa29588-p_e.jpg,TRUE,https://www.zillow.com/homedetails/3321-Oak-Grove-Ave-115G-Dallas-TX-75204/2102619588_zpid/,FOR_SALE,Condo for sale,$,245000,245000,"3321 Oak Grove Ave #115G, Dallas, TX 75204",3321 Oak Grove Ave #115G,Dallas,TX,75204,FALSE,1,1,821,32.8036,-96.79833,FALSE,"{'type': 'DAYS_ON', 'text': '19 days on Zillow'}",,ForSale,For Sale (Broker),245000
69670071,69670071,https://photos.zillowstatic.com/fp/81e6f402cb01d440fd37c7a174be4221-p_e.jpg,TRUE,https://www.zillow.com/homedetails/709-E-Kirnwood-Dr-Dallas-TX-75241/69670071_zpid/,FOR_SALE,House for sale,$,239900,239900,"709 E Kirnwood Dr, Dallas, TX 75241",709 E Kirnwood Dr,Dallas,TX,75241,FALSE,3,2,1359,32.653255,-96.81328,FALSE,"{'type': 'DAYS_ON', 'text': '5 days on Zillow'}",,ForSale,For Sale (Broker),239900
26683246,26683246,https://photos.zillowstatic.com/fp/56bc181e31156e5dcb175acedd81a711-p_e.jpg,TRUE,https://www.zillow.com/homedetails/4011-Cole-Ave-APT-113-Dallas-TX-75204/26683246_zpid/,FOR_SALE,Condo for sale,$,310000,310000,"4011 Cole Ave APT 113, Dallas, TX 75204",4011 Cole Ave APT 113,Dallas,TX,75204,FALSE,2,2,910,32.81271,-96.79465,FALSE,"{'type': 'DAYS_ON', 'text': '89 days on Zillow'}",,ForSale,For Sale (Broker),310000
67957227,67957227,https://photos.zillowstatic.com/fp/5eef16a3a0518fb495102a115164f468-p_e.jpg,TRUE,https://www.zillow.com/homedetails/7464-Concordia-Ln-Dallas-TX-75241/67957227_zpid/,FOR_SALE,House for sale,$,269000,269000,"7464 Concordia Ln, Dallas, TX 75241",7464 Concordia Ln,Dallas,TX,75241,FALSE,3,3,1564,32.656673,-96.810265,FALSE,"{'type': 'DAYS_ON', 'text': '41 days on Zillow'}",,ForSale,For Sale (Broker),269000
26739261,26739261,https://photos.zillowstatic.com/fp/48f0172ba496879c12680ff0958419bb-p_e.jpg,TRUE,https://www.zillow.com/homedetails/6610-Eastridge-Dr-APT-112-Dallas-TX-75231/26739261_zpid/,FOR_SALE,Condo for sale,$,215000,215000,"6610 Eastridge Dr APT 112, Dallas, TX 75231",6610 Eastridge Dr APT 112,Dallas,TX,75231,FALSE,2,3,1500,32.863846,-96.74928,FALSE,"{'type': 'DAYS_ON', 'text': '26 days on Zillow'}",,ForSale,For Sale (Broker),215000
26689506,26689506,https://photos.zillowstatic.com/fp/2e6bd635fb6a2b226d9b69215062241b-p_e.jpg,TRUE,https://www.zillow.com/homedetails/5740-Llano-Ave-Dallas-TX-75206/26689506_zpid/,FOR_SALE,House for sale,$,650000,650000,"5740 Llano Ave, Dallas, TX 75206",5740 Llano Ave,Dallas,TX,75206,FALSE,3,2,2045,32.82175,-96.76833,FALSE,"{'type': 'DAYS_ON', 'text': '5 days on Zillow'}",,ForSale,For Sale (Broker),650000
26826057,26826057,https://photos.zillowstatic.com/fp/0288e6081f7a71a611f6c7e0fb39a0f1-p_e.jpg,TRUE,https://www.zillow.com/homedetails/2037-Cedar-Valley-Ln-Dallas-TX-75232/26826057_zpid/,FOR_SALE,House for sale,$,280000,280000,"2037 Cedar Valley Ln, Dallas, TX 75232",2037 Cedar Valley Ln,Dallas,TX,75232,FALSE,4,2,1924,32.677334,-96.85201,FALSE,"{'type': 'DAYS_ON', 'text': '33 days on Zillow'}",,ForSale,For Sale (Broker),280000
26828772,26828772,https://photos.zillowstatic.com/fp/95563d400a6cce1e1d3ec3ccf533ea58-p_e.jpg,TRUE,https://www.zillow.com/homedetails/5833-Willow-Ln-Dallas-TX-75230/26828772_zpid/,FOR_SALE,House for sale,$,1125000,1125000,"5833 Willow Ln, Dallas, TX 75230",5833 Willow Ln,Dallas,TX,75230,FALSE,4,3,3078,32.91354,-96.80803,FALSE,"{'type': 'PRICE_REDUCTION', 'text': '$50,000 (Nov 10)'}",,ForSale,For Sale (Broker),1125000
26760485,26760485,https://photos.zillowstatic.com/fp/0037a3486b3d9ea901dd77ca939bccd7-p_e.jpg,TRUE,https://www.zillow.com/homedetails/5323-Stonegate-Rd-Dallas-TX-75209/26760485_zpid/,FOR_SALE,House for sale,$,2300000,2300000,"5323 Stonegate Rd, Dallas, TX 75209",5323 Stonegate Rd,Dallas,TX,75209,FALSE,4,4,4362,32.86047,-96.82031,FALSE,"{'type': 'DAYS_ON', 'text': '5 days on Zillow'}",,ForSale,For Sale (Broker),2300000
26868539,26868539,https://photos.zillowstatic.com/fp/8555c6e4b5a15bd1495d552c8729e83f-p_e.jpg,TRUE,https://www.zillow.com/homedetails/9506-Moss-Haven-Dr-Dallas-TX-75231/26868539_zpid/,FOR_SALE,House for sale,$,1099000,1099000,"9506 Moss Haven Dr, Dallas, TX 75231",9506 Moss Haven Dr,Dallas,TX,75231,FALSE,4,4,3443,32.890404,-96.7421,FALSE,"{'type': 'DAYS_ON', 'text': '18 days on Zillow'}",,ForSale,For Sale (Broker),1099000
26838158,26838158,https://photos.zillowstatic.com/fp/955fb35fb53a81a81c4de85d2e8447cc-p_e.jpg,TRUE,https://www.zillow.com/homedetails/11406-Valley-Dale-Dr-Dallas-TX-75230/26838158_zpid/,FOR_SALE,House for sale,$,1099000,1099000,"11406 Valley Dale Dr, Dallas, TX 75230",11406 Valley Dale Dr,Dallas,TX,75230,FALSE,4,4,3279,32.90519,-96.772545,FALSE,"{'type': 'PRICE_REDUCTION', 'text': '$101,000 (Nov 2)'}",,ForSale,For Sale (Broker),1099000
26769810,26769810,https://photos.zillowstatic.com/fp/109ed46b024d3c51ceeb7e666599247c-p_e.jpg,TRUE,https://www.zillow.com/homedetails/4007-Walker-St-Dallas-TX-75211/26769810_zpid/,FOR_SALE,House for sale,$,199900,199900,"4007 Walker St, Dallas, TX 75211",4007 Walker St,Dallas,TX,75211,FALSE,2,1,832,32.73435,-96.886086,FALSE,"{'type': 'DAYS_ON', 'text': '6 days on Zillow'}",,ForSale,For Sale (Broker),199900
26650358,26650358,https://photos.zillowstatic.com/fp/abf1595f5a0c88616f98d88b3e7d4e02-p_e.jpg,TRUE,https://www.zillow.com/homedetails/4935-Stony-Ford-Dr-Dallas-TX-75287/26650358_zpid/,FOR_SALE,House for sale,$,1139000,1139000,"4935 Stony Ford Dr, Dallas, TX 75287",4935 Stony Ford Dr,Dallas,TX,75287,FALSE,4,5,4204,32.997917,-96.821655,FALSE,"{'type': 'DAYS_ON', 'text': '4 days on Zillow'}",,ForSale,For Sale (Broker),1139000
26835843,26835843,https://photos.zillowstatic.com/fp/1e1df7358b460147a72a8a34df5a5361-p_e.jpg,TRUE,https://www.zillow.com/homedetails/4873-Bernal-Dr-Dallas-TX-75212/26835843_zpid/,FOR_SALE,House for sale,$,285000,285000,"4873 Bernal Dr, Dallas, TX 75212",4873 Bernal Dr,Dallas,TX,75212,FALSE,3,2,1341,32.7838,-96.90119,FALSE,"{'type': 'PRICE_REDUCTION', 'text': '$13,000 (Oct 12)'}",,ForSale,For Sale (Broker),285000
26929576,26929576,https://photos.zillowstatic.com/fp/4809535d395ae91be198161fb3543b60-p_e.jpg,TRUE,https://www.zillow.com/homedetails/7151-Gaston-Ave-APT-616-Dallas-TX-75214/26929576_zpid/,FOR_SALE,Condo for sale,$,245000,245000,"7151 Gaston Ave APT 616, Dallas, TX 75214",7151 Gaston Ave APT 616,Dallas,TX,75214,FALSE,2,2,889,32.81219,-96.73093,FALSE,"{'type': 'DAYS_ON', 'text': '13 days on Zillow'}",,ForSale,For Sale (Broker),245000
26840719,26840719,https://photos.zillowstatic.com/fp/b353f8cc44e693c5430ced75b83e54f8-p_e.jpg,TRUE,https://www.zillow.com/homedetails/2363-Materhorn-Dr-Dallas-TX-75228/26840719_zpid/,FOR_SALE,House for sale,$,349990,349990,"2363 Materhorn Dr, Dallas, TX 75228",2363 Materhorn Dr,Dallas,TX,75228,FALSE,3,2,1729,32.82834,-96.67631,FALSE,"{'type': 'PRICE_REDUCTION', 'text': '$20,000 (Nov 15)'}",,ForSale,For Sale (Broker),349990
26769309,26769309,https://photos.zillowstatic.com/fp/0a979478c1099201a6263e6ed368a97e-p_e.jpg,TRUE,https://www.zillow.com/homedetails/4542-Marcell-Ave-Dallas-TX-75211/26769309_zpid/,FOR_SALE,House for sale,$,295000,295000,"4542 Marcell Ave, Dallas, TX 75211",4542 Marcell Ave,Dallas,TX,75211,FALSE,3,1,1562,32.73182,-96.89679,FALSE,"{'type': 'DAYS_ON', 'text': '35 days on Zillow'}",,ForSale,For Sale (Broker),295000
26839944,26839944,https://photos.zillowstatic.com/fp/233cac992ac67ffd9fee66e759d6be92-p_e.jpg,TRUE,https://www.zillow.com/homedetails/7704-Meadow-Park-Dr-129-Dallas-TX-75230/26839944_zpid/,FOR_SALE,Condo for sale,$,250000,250000,"7704 Meadow Park Dr #129, Dallas, TX 75230",7704 Meadow Park Dr #129,Dallas,TX,75230,FALSE,2,2,1139,32.885303,-96.774925,FALSE,"{'type': 'DAYS_ON', 'text': '17 days on Zillow'}",,ForSale,For Sale (Broker),250000
26909272,26909272,https://photos.zillowstatic.com/fp/f31e8c554ee2f34cbbda3f08d242bfc8-p_e.jpg,TRUE,https://www.zillow.com/homedetails/9439-Gonzales-Dr-Dallas-TX-75227/26909272_zpid/,FOR_SALE,House for sale,$,169900,169900,"9439 Gonzales Dr, Dallas, TX 75227",9439 Gonzales Dr,Dallas,TX,75227,FALSE,3,2,1264,32.766994,-96.6596,FALSE,"{'type': 'DAYS_ON', 'text': '5 days on Zillow'}",,ForSale,For Sale (Broker),169900
96516264,96516264,https://photos.zillowstatic.com/fp/8b4efd20c6c97b34c349ec88c62e6108-p_e.jpg,TRUE,https://www.zillow.com/homedetails/5317-Eagle-Heights-Dr-Dallas-TX-75212/96516264_zpid/,FOR_SALE,House for sale,$,265000,265000,"5317 Eagle Heights Dr, Dallas, TX 75212",5317 Eagle Heights Dr,Dallas,TX,75212,FALSE,3,2,1399,32.769913,-96.90645,FALSE,"{'type': 'PRICE_REDUCTION', 'text': '$24,900 (Nov 11)'}",,ForSale,For Sale (Broker),265000
125234166,125234166,https://photos.zillowstatic.com/fp/823e653593db0c92cc13c0ba46ad6ad3-p_e.jpg,TRUE,https://www.zillow.com/homedetails/4211-Rawlins-St-UNIT-114-Dallas-TX-75219/125234166_zpid/,FOR_SALE,Condo for sale,$,635000,635000,"4211 Rawlins St UNIT 114, Dallas, TX 75219",4211 Rawlins St UNIT 114,Dallas,TX,75219,FALSE,3,4,2124,32.81484,-96.811356,FALSE,"{'type': 'DAYS_ON', 'text': '19 days on Zillow'}",,ForSale,For Sale (Broker),635000
26859666,26859666,https://photos.zillowstatic.com/fp/8965a0c3570cd2fd41cb9e68c6c31bf8-p_e.jpg,TRUE,https://www.zillow.com/homedetails/13610-Brookgreen-Dr-Dallas-TX-75240/26859666_zpid/,FOR_SALE,Townhouse for sale,$,270000,270000,"13610 Brookgreen Dr, Dallas, TX 75240",13610 Brookgreen Dr,Dallas,TX,75240,FALSE,3,2,1332,32.93262,-96.76835,FALSE,"{'type': 'PRICE_REDUCTION', 'text': '$12,500 (Oct 8)'}",,ForSale,For Sale (Broker),270000
26910053,26910053,https://photos.zillowstatic.com/fp/7aaf190f517f3689894294e6deb0e0e9-p_e.jpg,TRUE,https://www.zillow.com/homedetails/4743-Meadow-Ridge-Dr-Dallas-TX-75236/26910053_zpid/,FOR_SALE,House for sale,$,249900,249900,"4743 Meadow Ridge Dr, Dallas, TX 75236",4743 Meadow Ridge Dr,Dallas,TX,75236,FALSE,3,2,1216,32.68002,-96.902534,FALSE,"{'type': 'DAYS_ON', 'text': '3 days on Zillow'}",,ForSale,For Sale (Broker),249900
26786669,26786669,https://photos.zillowstatic.com/fp/9b53f446f9f3bdb1600cd248366ac989-p_e.jpg,TRUE,https://www.zillow.com/homedetails/552-Brookhurst-Dr-Dallas-TX-75218/26786669_zpid/,FOR_SALE,House for sale,$,469000,469000,"552 Brookhurst Dr, Dallas, TX 75218",552 Brookhurst Dr,Dallas,TX,75218,FALSE,3,2,1322,32.852245,-96.71073,FALSE,"{'type': 'DAYS_ON', 'text': '42 days on Zillow'}",,ForSale,For Sale (Broker),469000
96498421,96498421,https://photos.zillowstatic.com/fp/f1fdee617b3661e857d80880b0622678-p_e.jpg,TRUE,https://www.zillow.com/homedetails/4712-Baldwin-St-Dallas-TX-75210/96498421_zpid/,FOR_SALE,New construction,$,215000,215000,"4712 Baldwin St, Dallas, TX 75210",4712 Baldwin St,Dallas,TX,75210,FALSE,3,2,1332,32.778606,-96.743706,FALSE,"{'type': 'DAYS_ON', 'text': '9 days on Zillow'}",,ForSale,New Construction,215000
96497297,96497297,https://photos.zillowstatic.com/fp/6aac3a6beac147543a5429999c6840d5-p_e.jpg,TRUE,https://www.zillow.com/homedetails/6933-Truth-Dr-Dallas-TX-75236/96497297_zpid/,FOR_SALE,House for sale,$,525000,525000,"6933 Truth Dr, Dallas, TX 75236",6933 Truth Dr,Dallas,TX,75236,FALSE,4,3,2784,32.70078,-96.94461,FALSE,"{'type': 'DAYS_ON', 'text': '7 days on Zillow'}",,ForSale,For Sale (Broker),525000
26698392,26698392,https://photos.zillowstatic.com/fp/9b2dce6bb393daad3aa87facce37d437-p_e.jpg,TRUE,https://www.zillow.com/homedetails/2818-Le-Clerc-Ave-Dallas-TX-75210/26698392_zpid/,FOR_SALE,New construction,$,215000,215000,"2818 Le Clerc Ave, Dallas, TX 75210",2818 Le Clerc Ave,Dallas,TX,75210,FALSE,3,2,1227,32.774788,-96.74291,FALSE,"{'type': 'DAYS_ON', 'text': '48 days on Zillow'}",,ForSale,New Construction,215000
96529530,96529530,https://photos.zillowstatic.com/fp/c9ed6ef0edcb89d337190fe155c9dc79-p_e.jpg,TRUE,https://www.zillow.com/homedetails/3530-Peterborough-Mews-Dallas-TX-75236/96529530_zpid/,FOR_SALE,House for sale,$,459000,459000,"3530 Peterborough Mews, Dallas, TX 75236",3530 Peterborough Mews,Dallas,TX,75236,FALSE,4,3,2437,32.69958,-96.947685,FALSE,"{'type': '3D_HOME', 'text': '3D Tour'}",,ForSale,For Sale (Broker),459000
26784653,26784653,https://photos.zillowstatic.com/fp/8d1d2fd270566d8ec63ad397f3a39257-p_e.jpg,TRUE,https://www.zillow.com/homedetails/3127-Loganwood-Dr-Dallas-TX-75227/26784653_zpid/,FOR_SALE,House for sale,$,265000,265000,"3127 Loganwood Dr, Dallas, TX 75227",3127 Loganwood Dr,Dallas,TX,75227,FALSE,3,2,1484,32.765205,-96.69346,FALSE,"{'type': 'DAYS_ON', 'text': '7 days on Zillow'}",,ForSale,For Sale (Broker),265000
303985146,303985146,https://photos.zillowstatic.com/fp/621ffc6bab9b8aef0c4f0e7f27656dce-p_e.jpg,TRUE,https://www.zillow.com/homedetails/1318-Barrel-Dr-Dallas-TX-75253/303985146_zpid/,FOR_SALE,House for sale,$,332900,332900,"1318 Barrel Dr, Dallas, TX 75253",1318 Barrel Dr,Dallas,TX,75253,FALSE,4,3,2143,32.674076,-96.583405,FALSE,"{'type': 'PRICE_REDUCTION', 'text': '$3,000 (Nov 14)'}",,ForSale,For Sale (Broker),332900
89401186,89401186,https://photos.zillowstatic.com/fp/be5c538104d75a9738a60e6e35cca020-p_e.jpg,TRUE,https://www.zillow.com/homedetails/7303-Chapel-Mesa-Ct-Dallas-TX-75249/89401186_zpid/,FOR_SALE,House for sale,$,385000,385000,"7303 Chapel Mesa Ct, Dallas, TX 75249",7303 Chapel Mesa Ct,Dallas,TX,75249,FALSE,3,3,2051,32.652813,-96.948715,FALSE,"{'type': 'OPEN_HOUSE', 'text': 'Open: Sat. 1-3pm'}",,ForSale,For Sale (Broker),385000
26926327,26926327,https://photos.zillowstatic.com/fp/fee8bc074ce7a9284eaf661ec0f8b8be-p_e.jpg,TRUE,https://www.zillow.com/homedetails/2220-Canton-St-APT-503-Dallas-TX-75201/26926327_zpid/,FOR_SALE,New construction,$,395000,395000,"2220 Canton St APT 503, Dallas, TX 75201",2220 Canton St APT 503,Dallas,TX,75201,FALSE,1,1,1503,32.7803,-96.78944,FALSE,"{'type': 'DAYS_ON', 'text': '14 days on Zillow'}",,ForSale,New Construction,395000
96524076,96524076,https://photos.zillowstatic.com/fp/ec0066d1b32edfef8a37741a2ed40175-p_e.jpg,TRUE,https://www.zillow.com/homedetails/3432-Keyridge-Dr-Dallas-TX-75241/96524076_zpid/,FOR_SALE,House for sale,$,254900,254900,"3432 Keyridge Dr, Dallas, TX 75241",3432 Keyridge Dr,Dallas,TX,75241,FALSE,4,2,1555,32.682404,-96.76318,FALSE,"{'type': 'PRICE_REDUCTION', 'text': '$5,000 (Nov 11)'}",,ForSale,For Sale (Broker),254900
26737184,26737184,https://photos.zillowstatic.com/fp/f5d0221762027ed4765060568e0087ae-p_e.jpg,TRUE,https://www.zillow.com/homedetails/2711-Avon-St-Dallas-TX-75211/26737184_zpid/,FOR_SALE,House for sale,$,299000,299000,"2711 Avon St, Dallas, TX 75211",2711 Avon St,Dallas,TX,75211,FALSE,3,2,1393,32.754166,-96.86419,FALSE,"{'type': 'PRICE_REDUCTION', 'text': '$30,000 (Nov 4)'}",,ForSale,For Sale (Broker),299000
26861672,26861672,https://photos.zillowstatic.com/fp/ea2ef322d627383b4f14848f4c2e276f-p_e.jpg,TRUE,https://www.zillow.com/homedetails/9425-Fairhope-Ave-Dallas-TX-75217/26861672_zpid/,FOR_SALE,House for sale,$,240000,240000,"9425 Fairhope Ave, Dallas, TX 75217",9425 Fairhope Ave,Dallas,TX,75217,FALSE,4,2,1773,32.708557,-96.66054,FALSE,"{'type': 'DAYS_ON', 'text': '4 days on Zillow'}",,ForSale,For Sale (Broker),240000
26888143,26888143,https://photos.zillowstatic.com/fp/ee2db812ba8b2dacdb3ea9ca41e1b237-p_e.jpg,TRUE,https://www.zillow.com/homedetails/9702-Amberton-Pkwy-Dallas-TX-75243/26888143_zpid/,FOR_SALE,Townhouse for sale,$,220000,220000,"9702 Amberton Pkwy, Dallas, TX 75243",9702 Amberton Pkwy,Dallas,TX,75243,FALSE,2,2,1684,32.920166,-96.73876,FALSE,"{'type': 'DAYS_ON', 'text': '19 days on Zillow'}",,ForSale,For Sale (Broker),220000
26928350,26928350,https://photos.zillowstatic.com/fp/7727134033d24ab85c90448469ba471d-p_e.jpg,TRUE,https://www.zillow.com/homedetails/14151-Montfort-Dr-APT-320-Dallas-TX-75254/26928350_zpid/,FOR_SALE,Condo for sale,$,220000,220000,"14151 Montfort Dr APT 320, Dallas, TX 75254",14151 Montfort Dr APT 320,Dallas,TX,75254,FALSE,2,2,1001,32.94074,-96.81435,FALSE,"{'type': 'DAYS_ON', 'text': '13 days on Zillow'}",,ForSale,For Sale (Broker),220000
26795745,26795745,https://photos.zillowstatic.com/fp/a44f4e254ebc0f5a7ef6d828e9d8087b-p_e.jpg,TRUE,https://www.zillow.com/homedetails/1326-Traymore-Ave-Dallas-TX-75217/26795745_zpid/,FOR_SALE,House for sale,$,175000,175000,"1326 Traymore Ave, Dallas, TX 75217",1326 Traymore Ave,Dallas,TX,75217,FALSE,3,2,1151,32.73535,-96.69269,FALSE,"{'type': 'DAYS_ON', 'text': '5 days on Zillow'}",,ForSale,For Sale (Broker),175000
26701512,26701512,https://photos.zillowstatic.com/fp/ce8b1ec9d23eee66ba77e28368dc9ae7-p_e.jpg,TRUE,https://www.zillow.com/homedetails/6703-Santa-Fe-Ave-Dallas-TX-75223/26701512_zpid/,FOR_SALE,House for sale,$,1300000,1300000,"6703 Santa Fe Ave, Dallas, TX 75223",6703 Santa Fe Ave,Dallas,TX,75223,FALSE,4,4,3608,32.8071,-96.745674,FALSE,"{'type': 'DAYS_ON', 'text': '15 days on Zillow'}",,ForSale,For Sale (Broker),1300000
26900217,26900217,https://photos.zillowstatic.com/fp/66e912d02162c15257a43cffaa5eb687-p_e.jpg,TRUE,https://www.zillow.com/homedetails/15221-Berry-Trl-APT-604-Dallas-TX-75248/26900217_zpid/,FOR_SALE,Condo for sale,$,199500,199500,"15221 Berry Trl APT 604, Dallas, TX 75248",15221 Berry Trl APT 604,Dallas,TX,75248,FALSE,1,1,756,32.956013,-96.803566,FALSE,"{'type': 'PRICE_REDUCTION', 'text': '$2,400 (Nov 14)'}",,ForSale,For Sale (Broker),199500
162814937,162814937,https://photos.zillowstatic.com/fp/0da8d28a0c7ddb31d4d7c64bad8bc51d-p_e.jpg,TRUE,https://www.zillow.com/homedetails/13979-Skyfrost-Dr-TRAILER-72-Dallas-TX-75253/162814937_zpid/,FOR_SALE,Home for sale,$,74999,74999,"13979 Skyfrost Dr TRAILER 72, Dallas, TX 75253",13979 Skyfrost Dr TRAILER 72,Dallas,TX,75253,FALSE,3,2,1080,32.690517,-96.57518,FALSE,"{'type': 'DAYS_ON', 'text': '16 days on Zillow'}",,ForSale,For Sale (Broker),74900
26791352,26791352,https://photos.zillowstatic.com/fp/3c725c6e18fde8785de338aab1ac8c5c-p_e.jpg,TRUE,https://www.zillow.com/homedetails/2517-Blanton-St-Dallas-TX-75227/26791352_zpid/,FOR_SALE,House for sale,$,284000,284000,"2517 Blanton St, Dallas, TX 75227",2517 Blanton St,Dallas,TX,75227,FALSE,3,2,1625,32.75478,-96.667755,FALSE,"{'type': 'PRICE_REDUCTION', 'text': '$5,900 (Oct 23)'}",,ForSale,For Sale (Broker),283900
26704030,26704030,https://photos.zillowstatic.com/fp/32bd04edfcbd21053381f6b58ec1e1a7-p_e.jpg,TRUE,https://www.zillow.com/homedetails/5703-Ellsworth-Ave-Dallas-TX-75206/26704030_zpid/,FOR_SALE,House for sale,$,650000,650000,"5703 Ellsworth Ave, Dallas, TX 75206",5703 Ellsworth Ave,Dallas,TX,75206,FALSE,3,2,1899,32.834167,-96.769936,FALSE,"{'type': 'DAYS_ON', 'text': '54 days on Zillow'}",,ForSale,For Sale (Broker),649900
26880834,26880834,https://photos.zillowstatic.com/fp/b54b03d945aed56e7696f715700a2c96-p_e.jpg,TRUE,https://www.zillow.com/homedetails/12806-Midway-Rd-APT-2019-Dallas-TX-75244/26880834_zpid/,FOR_SALE,Condo for sale,$,160000,160000,"12806 Midway Rd APT 2019, Dallas, TX 75244",12806 Midway Rd APT 2019,Dallas,TX,75244,FALSE,2,2,987,32.921875,-96.83807,FALSE,"{'type': 'DAYS_ON', 'text': '14 days on Zillow'}",,ForSale,For Sale (Broker),159900
26905279,26905279,https://photos.zillowstatic.com/fp/64e604d4b7ab33bb182c5fe2965b8fed-p_e.jpg,TRUE,https://www.zillow.com/homedetails/4959-Lomax-Dr-Dallas-TX-75227/26905279_zpid/,FOR_SALE,House for sale,$,155000,155000,"4959 Lomax Dr, Dallas, TX 75227",4959 Lomax Dr,Dallas,TX,75227,FALSE,3,2,1130,32.783546,-96.69284,FALSE,"{'type': 'PRICE_REDUCTION', 'text': '$20,000 (Nov 1)'}",,ForSale,For Sale (Broker),154900
26815047,26815047,https://photos.zillowstatic.com/fp/cd5198b370aa0d5e7611804cbf00cb3c-p_e.jpg,TRUE,https://www.zillow.com/homedetails/923-Highfall-Dr-Dallas-TX-75232/26815047_zpid/,FOR_SALE,House for sale,$,269000,269000,"923 Highfall Dr, Dallas, TX 75232",923 Highfall Dr,Dallas,TX,75232,FALSE,4,2,1489,32.662987,-96.83664,FALSE,"{'type': 'PRICE_REDUCTION', 'text': '$6,000 (Nov 8)'}",,ForSale,For Sale (Broker),268900
26738887,26738887,https://photos.zillowstatic.com/fp/bbbc6c948cad63ba451edeed559666b6-p_e.jpg,TRUE,https://www.zillow.com/homedetails/7125-Fair-Oaks-Ave-APT-11-Dallas-TX-75231/26738887_zpid/,FOR_SALE,Condo for sale,$,149000,149000,"7125 Fair Oaks Ave APT 11, Dallas, TX 75231",7125 Fair Oaks Ave APT 11,Dallas,TX,75231,FALSE,2,3,1211,32.87306,-96.75812,FALSE,"{'type': 'DAYS_ON', 'text': '33 days on Zillow'}",,ForSale,For Sale (Broker),148900
96501236,96501236,https://photos.zillowstatic.com/fp/00a69c9b5e7beb673fabdc16c9aaa27a-p_e.jpg,TRUE,https://www.zillow.com/homedetails/2534-Iroquois-Dr-Dallas-TX-75212/96501236_zpid/,FOR_SALE,House for sale,$,360000,360000,"2534 Iroquois Dr, Dallas, TX 75212",2534 Iroquois Dr,Dallas,TX,75212,FALSE,4,3,1920,32.774326,-96.906456,FALSE,"{'type': 'DAYS_ON', 'text': '76 days on Zillow'}",,ForSale,For Sale (Broker),359900
26680595,26680595,https://photos.zillowstatic.com/fp/7cf916f8d40a2ba81339c385b4f2278a-p_e.jpg,TRUE,https://www.zillow.com/homedetails/3706-Spence-St-Dallas-TX-75215/26680595_zpid/,FOR_SALE,House for sale,$,289900,289900,"3706 Spence St, Dallas, TX 75215",3706 Spence St,Dallas,TX,75215,FALSE,3,3,1625,32.755863,-96.77083,FALSE,"{'type': 'DAYS_ON', 'text': '27 days on Zillow'}",,ForSale,For Sale (Broker),289800
26810751,26810751,https://photos.zillowstatic.com/fp/2af864f4c5d696fbf3f99cb7c026c470-p_e.jpg,TRUE,https://www.zillow.com/homedetails/3121-Park-Ln-APT-1136-Dallas-TX-75220/26810751_zpid/,FOR_SALE,Condo for sale,$,139000,139000,"3121 Park Ln APT 1136, Dallas, TX 75220",3121 Park Ln APT 1136,Dallas,TX,75220,FALSE,2,2,970,32.875935,-96.872894,FALSE,"{'type': 'PRICE_REDUCTION', 'text': '$1,000 (Nov 4)'}",,ForSale,For Sale (Broker),138900
26922706,26922706,https://photos.zillowstatic.com/fp/b6b9d273ff47f8f0007574855ae0fa8d-p_e.jpg,TRUE,https://www.zillow.com/homedetails/5740-Martel-Ave-APT-A08-Dallas-TX-75206/26922706_zpid/,FOR_SALE,Condo for sale,$,265000,265000,"5740 Martel Ave APT A08, Dallas, TX 75206",5740 Martel Ave APT A08,Dallas,TX,75206,FALSE,1,2,781,32.830956,-96.76859,FALSE,"{'type': 'PRICE_REDUCTION', 'text': '$3,000 (Oct 29)'}",,ForSale,For Sale (Broker),264900
26863110,26863110,https://photos.zillowstatic.com/fp/a5e165326206367e8e11f8571eae073c-p_e.jpg,TRUE,https://www.zillow.com/homedetails/4632-Country-Creek-Dr-APT-1222-Dallas-TX-75236/26863110_zpid/,FOR_SALE,Condo for sale,$,105000,105000,"4632 Country Creek Dr APT 1222, Dallas, TX 75236",4632 Country Creek Dr APT 1222,Dallas,TX,75236,FALSE,1,1,739,32.697777,-96.89895,FALSE,"{'type': 'DAYS_ON', 'text': '19 days on Zillow'}",,ForSale,For Sale (Broker),104900
26899520,26899520,https://photos.zillowstatic.com/fp/fffa63d45c39ccc2ee89a9c3d9752b99-p_e.jpg,TRUE,https://www.zillow.com/homedetails/9696-Walnut-St-APT-1905-Dallas-TX-75243/26899520_zpid/,FOR_SALE,Condo for sale,$,70000,70000,"9696 Walnut St APT 1905, Dallas, TX 75243",9696 Walnut St APT 1905,Dallas,TX,75243,FALSE,0,2,903,32.92417,-96.72166,FALSE,"{'type': 'DAYS_ON', 'text': '74 days on Zillow'}",,ForSale,For Sale (Broker),69900
26754527,26754527,https://photos.zillowstatic.com/fp/ac44a0948d5c52c6817142ac493c912b-p_e.jpg,TRUE,https://www.zillow.com/homedetails/6527-Chevy-Chase-Ave-Dallas-TX-75225/26754527_zpid/,FOR_SALE,House for sale,$,3195000,3195000,"6527 Chevy Chase Ave, Dallas, TX 75225",6527 Chevy Chase Ave,Dallas,TX,75225,FALSE,4,4,5318,32.871796,-96.792435,FALSE,"{'type': 'DAYS_ON', 'text': '16 days on Zillow'}",,ForSale,For Sale (Broker),3194900
96490337,96490337,https://photos.zillowstatic.com/fp/957deff3f0e065fac62edc0fe95718f3-p_e.jpg,TRUE,https://www.zillow.com/homedetails/2202-Red-Chute-Dr-Dallas-TX-75253/96490337_zpid/,FOR_SALE,House for sale,$,285000,285000,"2202 Red Chute Dr, Dallas, TX 75253",2202 Red Chute Dr,Dallas,TX,75253,FALSE,3,3,1632,32.67005,-96.60273,FALSE,"{'type': 'DAYS_ON', 'text': '20 days on Zillow'}",,ForSale,For Sale (Broker),284900
26773865,26773865,https://photos.zillowstatic.com/fp/9d8503f66215faace18034c31ef12562-p_e.jpg,TRUE,https://www.zillow.com/homedetails/624-Parkwood-Dr-Dallas-TX-75224/26773865_zpid/,FOR_SALE,House for sale,$,335000,335000,"624 Parkwood Dr, Dallas, TX 75224",624 Parkwood Dr,Dallas,TX,75224,FALSE,3,2,1656,32.69157,-96.83442,FALSE,"{'type': 'PRICE_REDUCTION', 'text': '$15,000 (Nov 13)'}",,ForSale,For Sale (Broker),334885
26744813,26744813,https://photos.zillowstatic.com/fp/de1a19678d6c997f35c3069fa95f7f77-p_e.jpg,TRUE,https://www.zillow.com/homedetails/11016-Estacado-Dr-Dallas-TX-75228/26744813_zpid/,FOR_SALE,House for sale,$,339965,339965,"11016 Estacado Dr, Dallas, TX 75228",11016 Estacado Dr,Dallas,TX,75228,FALSE,3,2,1210,32.84703,-96.67672,FALSE,"{'type': 'DAYS_ON', 'text': '26 days on Zillow'}",,ForSale,For Sale (Broker),339800
26727477,26727477,https://photos.zillowstatic.com/fp/3a54b15119ae3c437306eb7154f6e25d-p_e.jpg,TRUE,https://www.zillow.com/homedetails/3572-Virginia-Blvd-Dallas-TX-75211/26727477_zpid/,FOR_SALE,House for sale,$,299999,299999,"3572 Virginia Blvd, Dallas, TX 75211",3572 Virginia Blvd,Dallas,TX,75211,FALSE,4,3,2010,32.738945,-96.87913,FALSE,"{'type': 'DAYS_ON', 'text': '11 days on Zillow'}",,ForSale,For Sale (Broker),299800
26712667,26712667,https://photos.zillowstatic.com/fp/9d84d4d20192ac8d549e236ac63965ff-p_e.jpg,TRUE,https://www.zillow.com/homedetails/922-N-Clinton-Ave-Dallas-TX-75208/26712667_zpid/,FOR_SALE,House for sale,$,625000,625000,"922 N Clinton Ave, Dallas, TX 75208",922 N Clinton Ave,Dallas,TX,75208,FALSE,3,2,2140,32.754738,-96.841156,FALSE,"{'type': 'DAYS_ON', 'text': '37 days on Zillow'}",,ForSale,For Sale (Broker),624800
26704259,26704259,https://photos.zillowstatic.com/fp/a50f44f031d09d59b6bed7a687f98fab-p_e.jpg,TRUE,https://www.zillow.com/homedetails/5607-Longview-St-Dallas-TX-75206/26704259_zpid/,FOR_SALE,House for sale,$,885000,885000,"5607 Longview St, Dallas, TX 75206",5607 Longview St,Dallas,TX,75206,FALSE,3,4,2763,32.83113,-96.77184,FALSE,"{'type': '3D_HOME', 'text': '3D Tour'}",,ForSale,For Sale (Broker),884800
69677084,69677084,https://photos.zillowstatic.com/fp/60516716c2f87c8a1366e16de25aee60-p_e.jpg,TRUE,https://www.zillow.com/homedetails/1122-Jackson-St-APT-416-Dallas-TX-75202/69677084_zpid/,FOR_SALE,Condo for sale,$,289500,289500,"1122 Jackson St APT 416, Dallas, TX 75202",1122 Jackson St APT 416,Dallas,TX,75202,FALSE,1,1,1066,32.778267,-96.802444,FALSE,"{'type': 'DAYS_ON', 'text': '12 days on Zillow'}",,ForSale,For Sale (Broker),289300
26837537,26837537,https://photos.zillowstatic.com/fp/e3ca5bb47e5cd7539a73a036b0c3dde7-p_e.jpg,TRUE,https://www.zillow.com/homedetails/2414-Tolosa-Dr-Dallas-TX-75228/26837537_zpid/,FOR_SALE,House for sale,$,314900,314900,"2414 Tolosa Dr, Dallas, TX 75228",2414 Tolosa Dr,Dallas,TX,75228,FALSE,4,2,1355,32.851322,-96.67136,FALSE,"{'type': 'DAYS_ON', 'text': '19 days on Zillow'}",,ForSale,For Sale (Broker),314700
69675368,69675368,https://photos.zillowstatic.com/fp/c5e8c55a989382411d8b5cc6915a87f8-p_e.jpg,TRUE,https://www.zillow.com/homedetails/1122-Jackson-St-APT-316-Dallas-TX-75202/69675368_zpid/,FOR_SALE,Condo for sale,$,279000,279000,"1122 Jackson St APT 316, Dallas, TX 75202",1122 Jackson St APT 316,Dallas,TX,75202,FALSE,1,1,1066,32.778267,-96.802444,FALSE,"{'type': 'DAYS_ON', 'text': '20 days on Zillow'}",,ForSale,For Sale (Broker),278800
26772539,26772539,https://photos.zillowstatic.com/fp/be6b9689e083567c412d3ae2f629b0b9-p_e.jpg,TRUE,https://www.zillow.com/homedetails/617-Dogwood-Trl-Dallas-TX-75224/26772539_zpid/,FOR_SALE,House for sale,$,267500,267500,"617 Dogwood Trl, Dallas, TX 75224",617 Dogwood Trl,Dallas,TX,75224,FALSE,3,2,1648,32.706566,-96.83431,FALSE,"{'type': 'DAYS_ON', 'text': '8 days on Zillow'}",,ForSale,For Sale (Broker),267300
69667909,69667909,https://photos.zillowstatic.com/fp/6941560526777ce8308afd6cd8a0d279-p_e.jpg,TRUE,https://www.zillow.com/homedetails/2904-Midway-Plaza-Blvd-Dallas-TX-75241/69667909_zpid/,FOR_SALE,House for sale,$,215000,215000,"2904 Midway Plaza Blvd, Dallas, TX 75241",2904 Midway Plaza Blvd,Dallas,TX,75241,FALSE,3,2,1416,32.655266,-96.774055,FALSE,"{'type': 'PRICE_REDUCTION', 'text': '$5,000 (Nov 8)'}",,ForSale,For Sale (Broker),214800
26709389,26709389,https://photos.zillowstatic.com/fp/363e0ea511580921add2dd1b48e07ddb-p_e.jpg,TRUE,https://www.zillow.com/homedetails/812-Sunset-Ave-Dallas-TX-75208/26709389_zpid/,FOR_SALE,House for sale,$,395000,395000,"812 Sunset Ave, Dallas, TX 75208",812 Sunset Ave,Dallas,TX,75208,FALSE,3,2,1624,32.743927,-96.836426,FALSE,"{'type': 'DAYS_ON', 'text': '19 days on Zillow'}",,ForSale,For Sale (Broker),394800
26681492,26681492,https://photos.zillowstatic.com/fp/6f7082771a64e67f48ebd80730eaad6d-p_e.jpg,TRUE,https://www.zillow.com/homedetails/2700-Birmingham-Ave-Dallas-TX-75215/26681492_zpid/,FOR_SALE,New construction,$,230000,230000,"2700 Birmingham Ave, Dallas, TX 75215",2700 Birmingham Ave,Dallas,TX,75215,FALSE,3,2,1400,32.765965,-96.76682,FALSE,"{'type': 'DAYS_ON', 'text': '8 days on Zillow'}",,ForSale,New Construction,229800
67951467,67951467,https://photos.zillowstatic.com/fp/092a4cbf649c874bcc85c1574a0cad93-p_e.jpg,TRUE,https://www.zillow.com/homedetails/6107-Elam-Rd-Dallas-TX-75217/67951467_zpid/,FOR_SALE,House for sale,$,199000,199000,"6107 Elam Rd, Dallas, TX 75217",6107 Elam Rd,Dallas,TX,75217,FALSE,3,2,1254,32.72006,-96.7174,FALSE,"{'type': 'DAYS_ON', 'text': '117 days on Zillow'}",,ForSale,For Sale (Broker),198800
26713039,26713039,https://photos.zillowstatic.com/fp/e11823907366e76fc218b0636970067c-p_e.jpg,TRUE,https://www.zillow.com/homedetails/634-Turner-Ave-Dallas-TX-75208/26713039_zpid/,FOR_SALE,Multi-family home for sale,$,575000,575000,"634 Turner Ave, Dallas, TX 75208",634 Turner Ave,Dallas,TX,75208,FALSE,2,2,1872,32.75126,-96.83868,FALSE,"{'type': 'DAYS_ON', 'text': '11 days on Zillow'}",,ForSale,For Sale (Broker),574700
69676579,69676579,https://photos.zillowstatic.com/fp/ef034988dec025a2d8625bc380215e72-p_e.jpg,TRUE,https://www.zillow.com/homedetails/4419-Buena-Vista-St-APT-4-Dallas-TX-75205/69676579_zpid/,FOR_SALE,Condo for sale,$,699900,699900,"4419 Buena Vista St APT 4, Dallas, TX 75205",4419 Buena Vista St APT 4,Dallas,TX,75205,FALSE,2,3,1948,32.82143,-96.7929,FALSE,"{'type': 'PRICE_REDUCTION', 'text': '$50,000 (Oct 21)'}",,ForSale,For Sale (Broker),699600
162216450,162216450,https://photos.zillowstatic.com/fp/1d231c6045fd597d1b18849b3a8631f6-p_e.jpg,TRUE,https://www.zillow.com/homedetails/302-S-Ravinia-Dr-Dallas-TX-75211/162216450_zpid/,FOR_SALE,House for sale,$,435000,435000,"302 S Ravinia Dr, Dallas, TX 75211",302 S Ravinia Dr,Dallas,TX,75211,FALSE,3,2,1521,32.743195,-96.869804,FALSE,"{'type': 'DAYS_ON', 'text': '12 days on Zillow'}",,ForSale,For Sale (Broker),434700
26693328,26693328,https://photos.zillowstatic.com/fp/f11037be48e88918e16afce302502caf-p_e.jpg,TRUE,https://www.zillow.com/homedetails/3314-Hawthorne-Ave-Dallas-TX-75219/26693328_zpid/,FOR_SALE,Townhouse for sale,$,464000,464000,"3314 Hawthorne Ave, Dallas, TX 75219",3314 Hawthorne Ave,Dallas,TX,75219,FALSE,3,4,2036,32.81827,-96.81633,FALSE,"{'type': 'PRICE_REDUCTION', 'text': '$6,000 (Oct 27)'}",,ForSale,For Sale (Broker),463700
26593000,26593000,https://photos.zillowstatic.com/fp/c9fe2b076923695a511f89651e408c40-p_e.jpg,TRUE,https://www.zillow.com/homedetails/7305-Briarnoll-Dr-Dallas-TX-75252/26593000_zpid/,FOR_SALE,House for sale,$,670000,670000,"7305 Briarnoll Dr, Dallas, TX 75252",7305 Briarnoll Dr,Dallas,TX,75252,FALSE,4,4,3076,32.994293,-96.77883,FALSE,"{'type': 'DAYS_ON', 'text': '26 days on Zillow'}",,ForSale,For Sale (Broker),669700
26693330,26693330,https://photos.zillowstatic.com/fp/303916f64511376922c9fabc2252c7d8-p_e.jpg,TRUE,https://www.zillow.com/homedetails/3318-Hawthorne-Ave-Dallas-TX-75219/26693330_zpid/,FOR_SALE,Townhouse for sale,$,345000,345000,"3318 Hawthorne Ave, Dallas, TX 75219",3318 Hawthorne Ave,Dallas,TX,75219,FALSE,2,3,1364,32.8183,-96.81629,FALSE,"{'type': 'DAYS_ON', 'text': '130 days on Zillow'}",,ForSale,For Sale (Broker),344700
26741171,26741171,https://photos.zillowstatic.com/fp/cf5ee90c2fe81c28573064a347040274-p_e.jpg,TRUE,https://www.zillow.com/homedetails/9354-Angora-St-Dallas-TX-75218/26741171_zpid/,FOR_SALE,Multi-family home for sale,$,575000,575000,"9354 Angora St, Dallas, TX 75218",9354 Angora St,Dallas,TX,75218,FALSE,4,2,2405,32.8316,-96.70326,FALSE,"{'type': 'PRICE_REDUCTION', 'text': '$20,000 (Oct 17)'}",,ForSale,For Sale (Broker),574700
26706950,26706950,https://photos.zillowstatic.com/fp/65005b18a3d5d99737cc1a8c469f3bea-p_e.jpg,TRUE,https://www.zillow.com/homedetails/6827-Northridge-Dr-Dallas-TX-75214/26706950_zpid/,FOR_SALE,New construction,$,2195000,2195000,"6827 Northridge Dr, Dallas, TX 75214",6827 Northridge Dr,Dallas,TX,75214,FALSE,4,5,4789,32.830593,-96.743484,FALSE,"{'type': 'DAYS_ON', 'text': '22 days on Zillow'}",,ForSale,New Construction,2194700
53070197,53070197,https://photos.zillowstatic.com/fp/ed2a37cbe31321eaee11578967c501ef-p_e.jpg,TRUE,https://www.zillow.com/homedetails/17708-Hillcrest-Rd-Dallas-TX-75252/53070197_zpid/,FOR_SALE,House for sale,$,372500,372500,"17708 Hillcrest Rd, Dallas, TX 75252",17708 Hillcrest Rd,Dallas,TX,75252,FALSE,3,2,2027,32.990524,-96.78427,FALSE,"{'type': '3D_HOME', 'text': '3D Tour'}",,ForSale,For Sale (Broker),372112
96524523,96524523,https://photos.zillowstatic.com/fp/664b994bf82f56da2a129140574dcc93-p_e.jpg,TRUE,https://www.zillow.com/homedetails/3639-Bickers-St-Dallas-TX-75212/96524523_zpid/,FOR_SALE,House for sale,$,485000,485000,"3639 Bickers St, Dallas, TX 75212",3639 Bickers St,Dallas,TX,75212,FALSE,3,3,2048,32.78565,-96.88045,FALSE,"{'type': 'PRICE_REDUCTION', 'text': '$55,000 (Oct 21)'}",,ForSale,For Sale (Broker),484600
26707344,26707344,https://photos.zillowstatic.com/fp/700ecf7e9896a296a4d315102847d066-p_e.jpg,TRUE,https://www.zillow.com/homedetails/6820-E-Mockingbird-Ln-Dallas-TX-75214/26707344_zpid/,FOR_SALE,House for sale,$,614900,614900,"6820 E Mockingbird Ln, Dallas, TX 75214",6820 E Mockingbird Ln,Dallas,TX,75214,FALSE,4,2,2059,32.84189,-96.74164,FALSE,"{'type': 'DAYS_ON', 'text': '19 days on Zillow'}",,ForSale,For Sale (Broker),614500
162813619,162813619,https://photos.zillowstatic.com/fp/ce9bd572c6b458f715bdba4673ef1d82-p_e.jpg,TRUE,https://www.zillow.com/homedetails/6719-Sunshade-Ln-Dallas-TX-75236/162813619_zpid/,FOR_SALE,House for sale,$,529900,529900,"6719 Sunshade Ln, Dallas, TX 75236",6719 Sunshade Ln,Dallas,TX,75236,FALSE,4,3,3038,32.683025,-96.93655,FALSE,"{'type': 'DAYS_ON', 'text': '26 days on Zillow'}",,ForSale,For Sale (Broker),529500
26909948,26909948,https://photos.zillowstatic.com/fp/7954e738d2687f3f4c360cfd9a255602-p_e.jpg,TRUE,https://www.zillow.com/homedetails/2025-Elm-Shadows-Dr-Dallas-TX-75232/26909948_zpid/,FOR_SALE,House for sale,$,289900,289900,"2025 Elm Shadows Dr, Dallas, TX 75232",2025 Elm Shadows Dr,Dallas,TX,75232,FALSE,3,2,1353,32.661854,-96.85317,FALSE,"{'type': 'PRICE_REDUCTION', 'text': '$5,000 (Nov 4)'}",,ForSale,For Sale (Broker),289500
80236526,80236526,https://photos.zillowstatic.com/fp/7506b253a88ebcbc91c133d7b9086fd9-p_e.jpg,TRUE,https://www.zillow.com/homedetails/1152-Galicia-Ln-Dallas-TX-75217/80236526_zpid/,FOR_SALE,House for sale,$,286000,286000,"1152 Galicia Ln, Dallas, TX 75217",1152 Galicia Ln,Dallas,TX,75217,FALSE,4,2,1980,32.693134,-96.66685,FALSE,"{'type': 'DAYS_ON', 'text': '39 days on Zillow'}",,ForSale,For Sale (Broker),285600
26857795,26857795,https://photos.zillowstatic.com/fp/8142ee971b638dd438d365f6e02f4923-p_e.jpg,TRUE,https://www.zillow.com/homedetails/1005-Parlay-Cir-Dallas-TX-75211/26857795_zpid/,FOR_SALE,House for sale,$,445000,445000,"1005 Parlay Cir, Dallas, TX 75211",1005 Parlay Cir,Dallas,TX,75211,FALSE,5,4,3848,32.736385,-96.92845,FALSE,"{'type': 'PRICE_REDUCTION', 'text': '$10,000 (Oct 21)'}",,ForSale,For Sale (Broker),444600
26704456,26704456,https://photos.zillowstatic.com/fp/b60e2e077b97f5b49527c7bd911dbd6b-p_e.jpg,TRUE,https://www.zillow.com/homedetails/5302-McCommas-Blvd-Dallas-TX-75206/26704456_zpid/,FOR_SALE,House for sale,$,849995,849995,"5302 McCommas Blvd, Dallas, TX 75206",5302 McCommas Blvd,Dallas,TX,75206,FALSE,3,3,2965,32.829697,-96.779724,FALSE,"{'type': 'DAYS_ON', 'text': '44 days on Zillow'}",,ForSale,For Sale (Broker),849500
26704084,26704084,https://photos.zillowstatic.com/fp/1ea8f510a2e6077b96422cf7ecd74c2e-p_e.jpg,TRUE,https://www.zillow.com/homedetails/5606-Anita-St-Dallas-TX-75206/26704084_zpid/,FOR_SALE,New construction,$,999900,999900,"5606 Anita St, Dallas, TX 75206",5606 Anita St,Dallas,TX,75206,FALSE,3,3,2840,32.834377,-96.77187,FALSE,"{'type': 'DAYS_ON', 'text': '13 days on Zillow'}",,ForSale,New Construction,999400
26704998,26704998,https://photos.zillowstatic.com/fp/56e2b3a1ee1b68a613bd24c21aaff00d-p_e.jpg,TRUE,https://www.zillow.com/homedetails/6308-Woodcrest-Ln-Dallas-TX-75214/26704998_zpid/,FOR_SALE,House for sale,$,825000,825000,"6308 Woodcrest Ln, Dallas, TX 75214",6308 Woodcrest Ln,Dallas,TX,75214,FALSE,4,3,2121,32.839848,-96.75504,FALSE,"{'type': 'DAYS_ON', 'text': '13 days on Zillow'}",,ForSale,For Sale (Broker),824500
26679330,26679330,"https://maps.googleapis.com/maps/api/staticmap?mobile=false&sensor=true&maptype=satellite&size=575x242&zoom=17&center=32.77772521972656,-96.77833557128906&key=AIzaSyBJsNQO5ZeG-XAbqqWLKwG08fWITSxg33w&signature=kOXLxO_r8bGinUfgd_WJMp6s5-k=",,https://www.zillow.com/homedetails/2717-Dawson-St-Dallas-TX-75226/26679330_zpid/,FOR_SALE,House for sale,$,85000,85000,"2717 Dawson St, Dallas, TX 75226",2717 Dawson St,Dallas,TX,75226,FALSE,2,1,920,32.777725,-96.778336,FALSE,"{'type': 'DAYS_ON', 'text': '19 days on Zillow'}",,ForSale,For Sale (Broker),84500
26909181,26909181,https://photos.zillowstatic.com/fp/2cd5b64e1846711e7e8d084f9b8079e9-p_e.jpg,TRUE,https://www.zillow.com/homedetails/3615-Wilbarger-Dr-Dallas-TX-75227/26909181_zpid/,FOR_SALE,Multi-family home for sale,$,375000,375000,"3615 Wilbarger Dr, Dallas, TX 75227",3615 Wilbarger Dr,Dallas,TX,75227,FALSE,4,2,2006,32.767574,-96.66039,FALSE,"{'type': 'DAYS_ON', 'text': '8 days on Zillow'}",,ForSale,For Sale (Broker),374500
